Latitude, Longitude, Altitude (m), Time, Sats, Speed (m/s), Range (m), Battery (%), Roll (deg), Pitch (deg), Yaw (deg), Images, HD Signal (%), RC Signal (%), Battery Temp (C), Battery Voltage (mV), Battery Current (mA), Battery Energy (mAh), Battery Capacity (mAh), Battery Discharges, flyState, timestamp (Unix), LastUpdate (ms), radioChannel, Rc_elevator, Rc_aileron, Rc_throttle, Rc_rudder, Rc_gyro, Dronetype, Battery_Cell1 (mV), Battery_Cell2 (mV), Battery_Cell3 (mV), Battery_Cell4 (mV), Battery_Cell5 (mV), Battery_Cell6 (mV), Video, isFlying, elapsedTime (ms), gimbalPitch (deg), gimbalRoll (deg), gimbalYaw (deg), VelocityX (m/s), VelocityY (m/s), VelocityZ (m/s), GroundSmear (cm), App Version, Aircraft Name, Aircraft Firmware, Aircraft Serial Number, Battery Firmware, Battery Serial Number, Battery Lifetime (%), App_Tip, App_Warning, CurrentFlightStartingIndex, CurrentFlightLastVisitedWaypoint, PreviousFlightEndingWaypointIndex, DJIDiagnosticError, Focal Length (m)
 40.0403246, -105.5691694, 0.000, 15:08:31.639, 13, 0.10, 0.08, 98, 0.500, 2.200, -72.800, 733, --, 100, 17, 25126, -3239, 5027, 5130, 30, 11, 1570655311.639, 62, 100, 1024, 1024, 1024, 1024, 0, Matrice 100, 4175, 4186, 4151, 4154, 4147, 4149, 0, 1, 4104, -89.900, 0.000, -77.000, 0.000, 0.100, -0.100, 0.0, MapPilot_4.0.8_100120193, Dendroctonus I, 1.3.1.00, 041DDC1887, 03.10.00.00, 1058171200162, 93, Landed / OBSDK - Set Image Spacing to 630 cm / OBSDK - Set Imaging State / OBSDK - Get Image Spacing / OBSDK - Get Imaging State / FlightID: 86C738B5-62E6-4F16-B3E1-1371484C0D25 / MissionID: B8D63E49-B160-40A6-9F9E-1794A38F0C83 / Photo / DJI_0732.jpg, Imaging Interval: 2s - Adjusted Speed: 3.15 m/s / Starting Mission from Lat/Long: 40.04033/-105.56917 Camera: Zenmuse X3 - Overlap: 95/90 - Active Connection: No -  Terrain: SRTM, 39, 39, 39, Please check the aircraft’s status / Aircraft GPS Error / No Image Transmission Signal / Signal Lost. Aircraft Out of Control / IMU is initializing. Do not move the aircraft until initialization is complete,0.0036100
 40.0403246, -105.5691691, 0.000, 15:08:31.739, 13, 0.20, 0.10, 98, -0.200, 1.200, -72.500, 733, --, 100, 17, 25126, -3239, 5027, 5130, 30, 11, 1570655311.739, 70, 100, 1024, 1024, 1024, 1024, 0, , 4175, 4186, 4151, 4154, 4147, 4149, 0, 1, 4204, -90.000, 0.000, -76.800, 0.000, 0.200, -0.200, 0.1, , , , , , , 93, , , 39, 39, 39, ,0.0036100
 40.0403245, -105.5691686, 0.000, 15:08:31.839, 13, 0.20, 0.14, 98, -0.300, -1.100, -72.300, 733, --, 100, 17, 25126, -3239, 5027, 5130, 30, 11, 1570655311.839, 44, 100, 1024, 1024, 1024, 1024, 0, , 4175, 4186, 4151, 4154, 4147, 4149, 0, 1, 4304, -89.900, 0.000, -76.500, 0.000, 0.200, -0.400, 0.1, , , , , , , 93, , , 39, 39, 39, ,0.0036100
 40.0403245, -105.5691683, 0.100, 15:08:31.938, 15, 0.10, 0.16, 98, -0.400, -1.200, -72.500, 733, --, 100, 17, 25126, -3239, 5027, 5130, 30, 11, 1570655311.939, 42, 100, 1024, 1024, 1024, 1024, 0, , 4175, 4186, 4151, 4154, 4147, 4149, 0, 1, 4403, -89.900, 0.000, -76.400, 0.000, 0.100, -0.500, 0.0, , , , , , , 93, , , 39, 39, 39, ,0.0036100
 40.0403244, -105.5691681, 0.100, 15:08:32.038, 15, 0.10, 0.18, 98, -0.400, -1.100, -72.800, 733, --, 100, 17, 25126, -3239, 5027, 5130, 30, 11, 1570655312.039, 41, 100, 1024, 1024, 1024, 1024, 0, , 4175, 4186, 4151, 4154, 4147, 4149, 0, 1, 4503, -89.900, 0.000, -76.300, 0.000, 0.100, -0.600, 0.0, , , , , , , 93, , , 39, 39, 39, ,0.0036100
 40.0403244, -105.5691680, 0.200, 15:08:32.139, 14, 0.10, 0.19, 98, 0.000, -1.000, -73.200, 733, --, 100, 17, 25126, -3239, 5027, 5130, 30, 11, 1570655312.139, 43, 100, 1024, 1024, 1024, 1024, 0, , 4175, 4186, 4151, 4154, 4147, 4149, 0, 1, 4604, -89.900, 0.000, -76.200, 0.000, 0.100, -0.600, 0.0, , , , , , , 93, , , 39, 39, 39, ,0.0036100
 40.0403244, -105.5691679, 0.300, 15:08:32.239, 14, 0.10, 0.21, 98, 0.300, -0.400, -73.400, 733, --, 100, 17, 25126, -3239, 5027, 5130, 30, 11, 1570655312.240, 41, 100, 1024, 1024, 1024, 1024, 0, , 4175, 4186, 4151, 4154, 4147, 4149, 0, 1, 4704, -89.900, 0.000, -76.100, 0.000, 0.100, -0.500, 0.0, , , , , , , 93, , , 39, 39, 39, ,0.0036100
 40.0403243, -105.5691677, 0.300, 15:08:32.339, 14, 0.00, 0.22, 98, 0.300, -0.200, -73.500, 733, --, 100, 17, 23500, -10739, 5027, 5130, 30, 11, 1570655312.339, 40, 100, 1024, 1024, 1024, 1024, 0, , 3898, 3919, 3927, 3917, 3852, 3863, 0, 1, 4804, -89.900, 0.000, -76.000, 0.000, 0.000, -0.400, 0.0, , , , , , , 93, , , 39, 39, 39, ,0.0036100
 40.0403243, -105.5691676, 0.400, 15:08:32.438, 14, 0.00, 0.23, 98, 0.300, -0.400, -73.600, 733, --, 100, 17, 23500, -10739, 5027, 5130, 30, 11, 1570655312.439, 40, 100, 1024, 1024, 1024, 1024, 0, , 3898, 3919, 3927, 3917, 3852, 3863, 0, 1, 4903, -89.900, 0.000, -75.900, 0.000, 0.000, -0.400, 0.0, , , , , , , 93, , , 39, 39, 39, ,0.0036100
 40.0403242, -105.5691675, 0.500, 15:08:32.539, 13, 0.00, 0.24, 98, 0.400, -0.700, -73.600, 733, --, 100, 17, 23500, -10739, 5027, 5130, 30, 11, 1570655312.540, 17, 100, 1024, 1024, 1024, 1024, 0, , 3898, 3919, 3927, 3917, 3852, 3863, 0, 1, 5004, -89.900, 0.000, -75.800, 0.000, 0.000, -0.400, 0.0, , , , , , , 93, , , 39, 39, 39, ,0.0036100
 40.0403242, -105.5691674, 0.500, 15:08:32.639, 13, 0.00, 0.25, 98, 0.500, -0.900, -73.700, 733, --, 100, 17, 23500, -10739, 5027, 5130, 30, 11, 1570655312.639, 30, 100, 1024, 1024, 1024, 1024, 0, , 3898, 3919, 3927, 3917, 3852, 3863, 0, 1, 5104, -89.900, 0.000, -75.700, 0.000, 0.000, -0.400, 0.0, , , , , , , 93, , , 39, 39, 39, ,0.0036100
 40.0403241, -105.5691672, 0.500, 15:08:32.739, 13, 0.00, 0.27, 98, 0.800, -0.800, -73.700, 733, --, 100, 17, 23500, -10739, 5027, 5130, 30, 11, 1570655312.739, 21, 100, 1024, 1024, 1024, 1024, 0, , 3898, 3919, 3927, 3917, 3852, 3863, 0, 1, 5204, -89.900, 0.000, -75.600, 0.000, 0.000, -0.300, 0.0, , , , , , , 93, , , 39, 39, 39, ,0.0036100
 40.0403240, -105.5691671, 0.600, 15:08:32.839, 13, 0.00, 0.28, 98, 0.900, -0.800, -73.700, 733, --, 100, 17, 23500, -10739, 5027, 5130, 30, 11, 1570655312.839, 21, 100, 1024, 1024, 1024, 1024, 0, , 3898, 3919, 3927, 3917, 3852, 3863, 0, 1, 5304, -89.900, 0.000, -75.600, 0.000, 0.000, -0.200, 0.0, , , , , , , 93, , , 39, 39, 39, ,0.0036100
 40.0403240, -105.5691671, 0.600, 15:08:32.939, 13, 0.00, 0.28, 98, 0.900, -0.800, -73.700, 733, --, 100, 17, 23500, -10739, 5027, 5130, 30, 11, 1570655312.939, 121, 100, 1024, 1024, 1024, 1024, 0, , 3898, 3919, 3927, 3917, 3852, 3863, 0, 1, 5404, -89.900, 0.000, -75.600, 0.000, 0.000, -0.200, 0.0, , , , , , , 93, , , 39, 39, 39, ,0.0036100
 40.0403239, -105.5691669, 0.600, 15:08:33.039, 13, 0.00, 0.30, 98, 0.700, -0.900, -73.700, 733, --, 100, 17, 23500, -10739, 5027, 5130, 30, 11, 1570655313.039, 11, 100, 1024, 1024, 1024, 1024, 0, , 3898, 3919, 3927, 3917, 3852, 3863, 0, 1, 5504, -89.900, 0.000, -75.400, 0.000, 0.000, -0.400, 0.0, , , , , , , 93, , , 39, 39, 39, ,0.0036100
 40.0403238, -105.5691669, 0.700, 15:08:33.139, 14, 0.00, 0.31, 98, 0.700, -1.000, -73.600, 733, --, 100, 17, 23500, -10739, 5027, 5130, 30, 11, 1570655313.140, 11, 100, 1024, 1024, 1024, 1024, 0, , 3898, 3919, 3927, 3917, 3852, 3863, 0, 1, 5604, -89.900, 0.000, -75.400, 0.000, 0.000, -0.300, 0.0, , , , , , , 93, , , 39, 39, 39, ,0.0036100
 40.0403238, -105.5691669, 0.700, 15:08:33.239, 14, 0.00, 0.31, 98, 0.700, -1.000, -73.600, 733, --, 100, 17, 23500, -10739, 5027, 5130, 30, 11, 1570655313.239, 111, 100, 1024, 1024, 1024, 1024, 0, , 3898, 3919, 3927, 3917, 3852, 3863, 0, 1, 5704, -89.900, 0.000, -75.400, 0.000, 0.000, -0.300, 0.0, , , , , , , 93, , , 39, 39, 39, ,0.0036100
 40.0403237, -105.5691669, 0.700, 15:08:33.338, 14, 0.00, 0.31, 98, 1.100, -1.200, -73.600, 733, --, 100, 17, 22791, -18625, 5027, 5130, 30, 11, 1570655313.338, 91, 100, 1024, 1024, 1024, 1024, 0, , 3898, 3919, 3927, 3917, 3852, 3863, 0, 1, 5803, -90.000, 0.000, -75.300, 0.000, 0.000, -0.400, 0.0, , , , , , , 93, , , 39, 39, 39, ,0.0036100
 40.0403237, -105.5691668, 0.700, 15:08:33.439, 14, 0.00, 0.31, 98, 1.200, -1.400, -73.500, 733, --, 100, 17, 22791, -18625, 5027, 5130, 30, 11, 1570655313.440, 92, 100, 1024, 1024, 1024, 1024, 0, , 3898, 3919, 3927, 3917, 3852, 3863, 0, 1, 5904, -89.900, 0.000, -75.300, 0.000, 0.000, -0.400, 0.0, , , , , , , 93, , , 39, 39, 39, ,0.0036100
 40.0403237, -105.5691669, 0.800, 15:08:33.538, 14, 0.00, 0.31, 98, 1.100, -1.000, -73.500, 733, --, 100, 17, 22791, -18625, 5027, 5130, 30, 11, 1570655313.539, 91, 100, 1024, 1024, 1024, 1024, 0, , 3898, 3919, 3927, 3917, 3852, 3863, 0, 1, 6004, -89.900, 0.000, -75.200, 0.000, 0.000, -0.300, 0.0, , , , , , , 93, , , 39, 39, 39, ,0.0036100
 40.0403238, -105.5691669, 0.800, 15:08:33.639, 14, 0.00, 0.30, 98, 0.800, -0.700, -73.500, 733, --, 100, 17, 22791, -18625, 5027, 5130, 30, 11, 1570655313.640, 91, 100, 1024, 1024, 1024, 1024, 0, , 3898, 3919, 3927, 3917, 3852, 3863, 0, 1, 6104, -89.900, 0.000, -75.200, 0.000, 0.000, -0.300, 0.0, , , , , , , 93, , , 39, 39, 39, ,0.0036100
 40.0403238, -105.5691670, 0.900, 15:08:33.739, 14, 0.00, 0.30, 98, 0.300, -0.600, -73.300, 733, --, 100, 17, 22791, -18625, 5027, 5130, 30, 11, 1570655313.739, 63, 100, 1024, 1024, 1024, 1024, 0, , 3898, 3919, 3927, 3917, 3852, 3863, 0, 1, 6204, -89.900, 0.000, -75.100, 0.000, 0.000, -0.400, 0.0, , , , , , , 93, , , 39, 39, 39, ,0.0036100
 40.0403238, -105.5691670, 0.900, 15:08:33.839, 14, 0.00, 0.29, 98, -0.300, -0.500, -73.100, 733, --, 100, 17, 22791, -18625, 5027, 5130, 30, 14, 1570655313.839, 71, 100, 1024, 1024, 1024, 1024, 0, , 3778, 3820, 3797, 3804, 3817, 3796, 0, 1, 6304, -89.900, 0.000, -75.100, 0.000, 0.000, -0.400, 0.0, , , , , , , 93, , , 39, 39, 39, ,0.0036100
 40.0403238, -105.5691671, 0.900, 15:08:33.939, 14, 0.10, 0.29, 98, -0.500, -0.600, -72.800, 733, --, 100, 17, 22791, -18625, 5027, 5130, 30, 14, 1570655313.939, 72, 100, 1024, 1024, 1024, 1024, 0, , 3778, 3820, 3797, 3804, 3817, 3796, 0, 1, 6404, -89.900, 0.000, -75.000, 0.000, -0.100, -0.400, 0.0, , , , , , , 93, , , 39, 39, 39, ,0.0036100
 40.0403237, -105.5691672, 1.000, 15:08:34.039, 13, 0.10, 0.29, 98, -0.500, 0.000, -72.400, 733, --, 100, 17, 22791, -18625, 5027, 5130, 30, 14, 1570655314.039, 67, 100, 1024, 1024, 1024, 1024, 0, , 3778, 3820, 3797, 3804, 3817, 3796, 0, 1, 6504, -89.900, 0.000, -75.000, 0.000, -0.100, -0.300, 0.0, , , , , , , 93, , , 39, 39, 39, ,0.0036100
 40.0403236, -105.5691673, 1.100, 15:08:34.139, 13, 0.10, 0.28, 98, 0.000, 0.500, -71.900, 733, --, 100, 17, 22791, -18625, 5027, 5130, 30, 14, 1570655314.139, 75, 100, 1024, 1024, 1024, 1024, 0, , 3778, 3820, 3797, 3804, 3817, 3796, 0, 1, 6604, -89.900, 0.000, -74.900, 0.000, -0.100, -0.400, 0.0, , , , , , , 93, , , 39, 39, 39, ,0.0036100
 40.0403236, -105.5691674, 1.100, 15:08:34.239, 14, 0.00, 0.28, 98, 0.800, 0.900, -71.300, 733, --, 100, 17, 22791, -18625, 5027, 5130, 30, 14, 1570655314.239, 73, 100, 1024, 1024, 1024, 1024, 0, , 3778, 3820, 3797, 3804, 3817, 3796, 0, 1, 6704, -89.900, 0.000, -74.800, 0.000, 0.000, -0.300, 0.0, , , , , , , 93, , , 39, 39, 39, ,0.0036100
 40.0403235, -105.5691675, 1.100, 15:08:34.339, 14, 0.00, 0.28, 98, 1.600, 1.200, -70.800, 733, --, 100, 17, 22791, -18625, 5027, 5130, 30, 14, 1570655314.339, 70, 100, 1024, 1024, 1024, 1024, 0, , 3778, 3820, 3797, 3804, 3817, 3796, 0, 1, 6804, -89.900, 0.000, -74.600, 0.000, 0.000, -0.300, 0.0, , , , , , , 93, , , 39, 39, 39, ,0.0036100
 40.0403234, -105.5691675, 1.200, 15:08:34.439, 13, 0.00, 0.28, 98, 1.400, 0.600, -69.900, 733, --, 100, 17, 22791, -18625, 5027, 5130, 30, 14, 1570655314.439, 43, 100, 1024, 1024, 1024, 1024, 0, , 3778, 3820, 3797, 3804, 3817, 3796, 0, 1, 6904, -89.900, 0.000, -74.300, 0.000, 0.000, -0.700, 0.0, , , , , , , 93, , , 39, 39, 39, ,0.0036100
 40.0403233, -105.5691676, 1.300, 15:08:34.539, 13, 0.00, 0.28, 98, 0.900, 0.000, -69.400, 733, --, 100, 17, 22791, -18625, 5027, 5130, 30, 14, 1570655314.539, 41, 100, 1024, 1024, 1024, 1024, 0, , 3778, 3820, 3797, 3804, 3817, 3796, 0, 1, 7004, -89.900, 0.000, -74.300, 0.000, 0.000, -0.800, 0.0, , , , , , , 93, , , 39, 39, 39, ,0.0036100
 40.0403233, -105.5691676, 1.400, 15:08:34.639, 13, 0.00, 0.28, 98, 0.400, -0.600, -69.100, 733, --, 100, 17, 22791, -18625, 5027, 5130, 30, 14, 1570655314.639, 30, 100, 1024, 1024, 1024, 1024, 0, , 3778, 3820, 3797, 3804, 3817, 3796, 0, 1, 7104, -90.000, 0.000, -73.800, 0.000, 0.000, -1.000, 0.0, , , , , , , 93, , , 39, 39, 39, ,0.0036100
 40.0403232, -105.5691677, 1.500, 15:08:34.738, 14, 0.00, 0.28, 98, 0.200, -1.000, -68.900, 733, --, 100, 17, 22791, -18625, 5027, 5130, 30, 14, 1570655314.739, 31, 100, 1024, 1024, 1024, 1024, 0, , 3778, 3820, 3797, 3804, 3817, 3796, 0, 1, 7204, -90.000, 0.000, -73.600, 0.000, 0.000, -1.200, 0.0, , , , , , , 93, , , 39, 39, 39, ,0.0036100
 40.0403232, -105.5691677, 1.700, 15:08:34.839, 14, 0.00, 0.28, 98, 0.700, -0.800, -68.900, 733, --, 100, 17, 22433, -19283, 5027, 5130, 30, 14, 1570655314.839, 28, 100, 1024, 1024, 1024, 1024, 0, , 3723, 3716, 3746, 3736, 3729, 3736, 0, 1, 7304, -89.900, 0.000, -73.400, 0.000, 0.000, -1.500, 0.0, , , , , , , 93, , , 39, 39, 39, ,0.0036100
 40.0403232, -105.5691678, 1.900, 15:08:34.939, 15, 0.00, 0.27, 98, 1.300, -0.100, -69.000, 733, --, 100, 17, 22433, -19283, 5027, 5130, 30, 14, 1570655314.939, 40, 100, 1024, 1024, 1024, 1024, 0, , 3723, 3716, 3746, 3736, 3729, 3736, 0, 1, 7404, -89.900, 0.000, -73.100, 0.000, 0.000, -1.800, 0.0, , , , , , , 93, , , 39, 39, 39, ,0.0036100
 40.0403232, -105.5691680, 2.100, 15:08:35.039, 15, 0.00, 0.26, 98, 1.800, 0.600, -69.300, 733, --, 100, 17, 22433, -19283, 5027, 5130, 30, 14, 1570655315.039, 39, 100, 1024, 1024, 1024, 1024, 0, , 3723, 3716, 3746, 3736, 3729, 3736, 0, 1, 7504, -89.900, 0.000, -73.000, 0.000, 0.000, -2.000, 0.0, , , , , , , 93, , , 39, 39, 39, ,0.0036100
 40.0403232, -105.5691682, 2.300, 15:08:35.139, 15, 0.00, 0.25, 98, 2.100, 1.000, -69.800, 733, --, 100, 17, 22433, -19283, 5027, 5130, 30, 14, 1570655315.140, 30, 100, 1024, 1024, 1024, 1024, 0, , 3723, 3716, 3746, 3736, 3729, 3736, 0, 1, 7604, -89.900, 0.000, -72.800, 0.000, 0.000, -2.100, 0.0, , , , , , , 93, , , 39, 39, 39, ,0.0036100
 40.0403233, -105.5691684, 2.500, 15:08:35.239, 15, 0.00, 0.23, 98, 2.500, 0.900, -70.400, 733, --, 100, 17, 22433, -19283, 5027, 5130, 30, 14, 1570655315.239, 30, 100, 1024, 1024, 1024, 1024, 0, , 3723, 3716, 3746, 3736, 3729, 3736, 0, 1, 7704, -89.900, 0.000, -72.600, 0.000, 0.000, -2.300, 0.0, , , , , , , 93, , , 39, 39, 39, ,0.0036100
 40.0403234, -105.5691686, 2.800, 15:08:35.340, 14, 0.10, 0.21, 98, 2.600, 0.500, -70.800, 733, --, 100, 17, 22433, -19283, 5027, 5130, 30, 14, 1570655315.341, 2, 100, 1024, 1024, 1024, 1024, 0, , 3723, 3716, 3746, 3736, 3729, 3736, 0, 1, 7805, -89.900, 0.000, -72.500, 0.100, 0.000, -2.500, 0.0, , , , , , , 93, , , 39, 39, 39, ,0.0036100
 40.0403234, -105.5691688, 3.000, 15:08:35.440, 14, 0.10, 0.20, 98, 1.400, 0.500, -70.600, 733, --, 100, 17, 22433, -19283, 5027, 5130, 30, 14, 1570655315.440, 1, 100, 1024, 1024, 1024, 1024, 0, , 3723, 3716, 3746, 3736, 3729, 3736, 0, 1, 7905, -89.900, 0.000, -72.500, 0.100, 0.000, -2.600, 0.0, , , , , , , 93, , , 39, 39, 39, ,0.0036100
 40.0403236, -105.5691690, 3.300, 15:08:35.539, 16, 0.10, 0.18, 98, -0.500, 1.700, -70.000, 733, --, 100, 17, 22433, -19283, 5027, 5130, 30, 14, 1570655315.540, 3, 100, 1024, 1024, 1024, 1024, 0, , 3723, 3716, 3746, 3736, 3729, 3736, 0, 1, 8004, -89.900, 0.000, -72.200, 0.100, 0.000, -2.800, 0.0, , , , , , , 93, , , 39, 39, 39, ,0.0036100
 40.0403237, -105.5691691, 3.600, 15:08:35.639, 16, 0.10, 0.16, 98, -1.300, 2.600, -69.300, 733, --, 100, 17, 22433, -19283, 5027, 5130, 30, 14, 1570655315.640, 5, 100, 1024, 1024, 1024, 1024, 0, , 3723, 3716, 3746, 3736, 3729, 3736, 0, 1, 8104, -89.900, 0.000, -72.100, 0.100, 0.000, -3.000, 0.0, , , , , , , 93, , , 39, 39, 39, ,0.0036100
 40.0403237, -105.5691691, 3.600, 15:08:35.739, 16, 0.10, 0.16, 98, -1.300, 2.600, -69.300, 733, --, 100, 17, 22433, -19283, 5027, 5130, 30, 14, 1570655315.739, 105, 100, 1024, 1024, 1024, 1024, 0, , 3723, 3716, 3746, 3736, 3729, 3736, 0, 1, 8204, -89.900, 0.000, -72.100, 0.100, 0.000, -3.000, 0.0, , , , , , , 93, , , 39, 39, 39, ,0.0036100
 40.0403238, -105.5691692, 3.900, 15:08:35.839, 15, 0.10, 0.15, 98, -1.600, 2.800, -68.700, 733, --, 100, 17, 21570, -26949, 5027, 5130, 30, 14, 1570655315.839, 91, 100, 1024, 1024, 1024, 1024, 0, , 3564, 3583, 3575, 3557, 3592, 3728, 0, 1, 8304, -89.900, 0.000, -72.000, 0.100, 0.000, -3.100, 0.0, , , , , , , 93, , , 39, 39, 39, ,0.0036100
 40.0403239, -105.5691694, 4.200, 15:08:35.938, 15, 0.00, 0.13, 98, -1.200, 2.700, -68.300, 733, --, 100, 17, 21570, -26949, 5027, 5130, 30, 14, 1570655315.939, 85, 100, 1024, 1024, 1024, 1024, 0, , 3564, 3583, 3575, 3557, 3592, 3728, 0, 1, 8403, -89.900, 0.000, -71.900, 0.000, 0.000, -3.200, 0.0, , , , , , , 93, , , 39, 39, 39, ,0.0036100
 40.0403239, -105.5691696, 4.600, 15:08:36.039, 15, 0.00, 0.11, 98, -0.300, 2.700, -68.100, 733, --, 100, 17, 21570, -26949, 5027, 5130, 30, 14, 1570655316.039, 77, 100, 1024, 1024, 1024, 1024, 0, , 3564, 3583, 3575, 3557, 3592, 3728, 0, 1, 8504, -89.900, 0.000, -71.800, 0.000, 0.000, -3.300, 0.0, , , , , , , 93, , , 39, 39, 39, ,0.0036100
 40.0403239, -105.5691697, 4.900, 15:08:36.139, 15, 0.00, 0.12, 98, 0.300, 2.800, -68.000, 733, --, 100, 17, 21570, -26949, 5027, 5130, 30, 14, 1570655316.139, 86, 100, 1024, 1024, 1024, 1024, 0, , 3564, 3583, 3575, 3557, 3592, 3728, 0, 1, 8604, -89.900, 0.000, -71.700, 0.000, 0.000, -3.400, 0.0, , , , , , , 93, , , 39, 39, 39, ,0.0036100
 40.0403238, -105.5691697, 5.300, 15:08:36.239, 16, 0.00, 0.12, 98, 0.400, 2.700, -68.100, 733, --, 100, 17, 21570, -26949, 5027, 5130, 30, 14, 1570655316.239, 87, 100, 1024, 1024, 1024, 1024, 0, , 3564, 3583, 3575, 3557, 3592, 3728, 0, 1, 8704, -89.900, 0.000, -71.700, 0.000, 0.000, -3.400, 0.0, , , , , , , 93, , , 39, 39, 39, ,0.0036100
 40.0403238, -105.5691697, 5.600, 15:08:36.339, 16, 0.00, 0.12, 98, 0.400, 2.400, -68.300, 733, --, 100, 17, 21570, -26949, 5027, 5130, 30, 14, 1570655316.339, 90, 100, 1024, 1024, 1024, 1024, 0, , 3564, 3583, 3575, 3557, 3592, 3728, 0, 1, 8804, -89.900, 0.000, -71.600, 0.000, 0.000, -3.400, 0.0, , , , , , , 93, , , 39, 39, 39, ,0.0036100
 40.0403239, -105.5691697, 6.000, 15:08:36.439, 16, 0.00, 0.12, 98, 0.000, 2.200, -68.400, 733, --, 100, 17, 21570, -26949, 5027, 5130, 30, 14, 1570655316.439, 81, 100, 1024, 1024, 1024, 1024, 0, , 3564, 3583, 3575, 3557, 3592, 3728, 0, 1, 8904, -89.900, 0.000, -71.500, 0.000, 0.000, -3.500, 0.0, , , , , , , 93, , , 39, 39, 39, ,0.0036100
 40.0403240, -105.5691696, 6.400, 15:08:36.539, 16, 0.10, 0.11, 98, -0.300, 1.600, -68.500, 733, --, 100, 17, 21570, -26949, 5027, 5130, 30, 14, 1570655316.539, 80, 100, 1024, 1024, 1024, 1024, 0, , 3564, 3583, 3575, 3557, 3592, 3728, 0, 1, 9003, -89.900, 0.000, -71.400, 0.000, 0.100, -3.500, 0.0, , , , , , , 93, , , 39, 39, 39, ,0.0036100
 40.0403241, -105.5691694, 6.800, 15:08:36.639, 16, 0.10, 0.11, 98, -0.700, 1.100, -68.600, 733, --, 100, 17, 21570, -26949, 5027, 5130, 30, 14, 1570655316.639, 80, 100, 1024, 1024, 1024, 1024, 0, , 3564, 3583, 3575, 3557, 3592, 3728, 0, 1, 9104, -90.000, 0.000, -71.400, 0.000, 0.100, -3.500, 0.0, , , , , , , 93, , , 39, 39, 39, ,0.0036100
 40.0403243, -105.5691692, 7.500, 15:08:36.739, 16, 0.10, 0.11, 98, -1.200, 0.500, -68.800, 733, --, 100, 17, 21570, -26949, 5027, 5130, 30, 14, 1570655316.739, 66, 100, 1024, 1024, 1024, 1024, 0, , 3564, 3583, 3575, 3557, 3592, 3728, 0, 1, 9204, -89.900, 0.000, -71.300, 0.000, 0.100, -3.300, 0.0, , , , , , , 93, , , 39, 39, 39, ,0.0036100
 40.0403244, -105.5691690, 7.800, 15:08:36.838, 16, 0.10, 0.11, 98, -1.300, 0.300, -69.000, 733, --, 100, 17, 21534, -26460, 4976, 5130, 30, 14, 1570655316.839, 67, 100, 1024, 1024, 1024, 1024, 0, , 3564, 3641, 3612, 3614, 3602, 3615, 0, 1, 9303, -90.000, 0.000, -71.200, 0.000, 0.100, -3.300, 0.0, , , , , , , 93, , , 39, 39, 39, ,0.0036100
 40.0403245, -105.5691689, 8.200, 15:08:36.939, 16, 0.10, 0.12, 98, -1.400, 0.400, -69.100, 733, --, 100, 17, 21534, -26460, 4976, 5130, 30, 14, 1570655316.939, 59, 100, 1024, 1024, 1024, 1024, 0, , 3564, 3641, 3612, 3614, 3602, 3615, 0, 1, 9404, -90.000, 0.000, -71.200, 0.000, 0.100, -3.200, 0.0, , , , , , , 93, , , 39, 39, 39, ,0.0036100
 40.0403245, -105.5691687, 8.500, 15:08:37.039, 16, 0.10, 0.13, 98, -1.300, 0.500, -69.200, 733, --, 100, 17, 21534, -26460, 4976, 5130, 30, 14, 1570655317.039, 53, 100, 1024, 1024, 1024, 1024, 0, , 3564, 3641, 3612, 3614, 3602, 3615, 0, 1, 9504, -89.900, 0.000, -71.100, 0.000, 0.100, -3.200, 0.0, , , , , , , 93, , , 39, 39, 39, ,0.0036100
 40.0403245, -105.5691684, 8.900, 15:08:37.139, 16, 0.10, 0.15, 98, -1.200, 0.200, -69.200, 733, --, 100, 17, 21534, -26460, 4976, 5130, 30, 14, 1570655317.139, 45, 100, 1024, 1024, 1024, 1024, 0, , 3564, 3641, 3612, 3614, 3602, 3615, 0, 1, 9604, -89.900, 0.000, -71.100, 0.000, 0.100, -3.200, 0.0, , , , , , , 93, , , 39, 39, 39, ,0.0036100
 40.0403245, -105.5691682, 9.200, 15:08:37.239, 16, 0.10, 0.17, 98, -1.200, -0.500, -69.100, 733, --, 100, 17, 21534, -26460, 4976, 5130, 30, 14, 1570655317.239, 30, 100, 1024, 1024, 1024, 1024, 0, , 3564, 3641, 3612, 3614, 3602, 3615, 0, 1, 9704, -89.900, 0.000, -71.000, 0.000, 0.100, -3.100, 0.0, , , , , , , 93, , , 39, 39, 39, ,0.0036100
 40.0403245, -105.5691680, 9.500, 15:08:37.339, 16, 0.10, 0.19, 98, -1.400, -0.500, -69.100, 733, --, 100, 17, 21534, -26460, 4976, 5130, 30, 14, 1570655317.339, 31, 100, 1024, 1024, 1024, 1024, 0, , 3564, 3641, 3612, 3614, 3602, 3615, 0, 1, 9804, -89.900, 0.000, -70.900, 0.000, 0.100, -3.000, 0.0, , , , , , , 93, , , 39, 39, 39, ,0.0036100
 40.0403244, -105.5691677, 9.900, 15:08:37.439, 16, 0.10, 0.21, 98, -1.500, -0.100, -69.100, 733, --, 100, 17, 21534, -26460, 4976, 5130, 30, 14, 1570655317.439, 26, 100, 1024, 1024, 1024, 1024, 0, , 3564, 3641, 3612, 3614, 3602, 3615, 0, 1, 9904, -89.900, 0.000, -70.900, 0.000, 0.100, -3.000, 0.0, , , , , , , 93, , , 39, 39, 39, ,0.0036100
 40.0403244, -105.5691675, 10.200, 15:08:37.539, 16, 0.10, 0.24, 98, -1.100, -0.200, -69.000, 733, --, 100, 17, 21534, -26460, 4976, 5130, 30, 14, 1570655317.539, 30, 100, 1024, 1024, 1024, 1024, 0, , 3564, 3641, 3612, 3614, 3602, 3615, 0, 1, 10004, -90.000, 0.000, -70.900, 0.000, 0.100, -3.000, 0.0, , , , , , , 93, , , 39, 39, 39, ,0.0036100
 40.0403243, -105.5691672, 10.500, 15:08:37.639, 16, 0.10, 0.26, 98, -0.500, -1.200, -68.900, 733, --, 100, 17, 21534, -26460, 4976, 5130, 30, 14, 1570655317.639, 29, 100, 1024, 1024, 1024, 1024, 0, , 3564, 3641, 3612, 3614, 3602, 3615, 0, 1, 10104, -89.900, 0.000, -70.800, 0.000, 0.100, -2.900, 0.0, , , , , , , 93, , , 39, 39, 39, ,0.0036100
 40.0403242, -105.5691670, 10.900, 15:08:37.739, 16, 0.10, 0.29, 97, -0.200, -1.600, -69.100, 733, --, 100, 17, 21983, -20442, 4976, 5130, 30, 14, 1570655317.739, 21, 100, 1024, 1024, 1024, 1024, 0, , 3641, 3688, 3670, 3658, 3684, 3666, 0, 1, 10204, -90.000, 0.000, -70.800, 0.000, 0.100, -2.900, 0.0, , , , , , , 93, , , 39, 39, 39, ,0.0036100
 40.0403241, -105.5691666, 11.200, 15:08:37.839, 16, 0.10, 0.31, 97, -0.500, -2.100, -69.200, 733, --, 100, 17, 21983, -20442, 4976, 5130, 30, 14, 1570655317.839, 29, 100, 1024, 1024, 1024, 1024, 0, , 3641, 3688, 3670, 3658, 3684, 3666, 0, 1, 10304, -90.000, 0.000, -70.800, 0.000, 0.100, -3.000, 0.0, , , , , , , 93, , , 39, 39, 39, ,0.0036100
 40.0403239, -105.5691663, 11.500, 15:08:37.938, 16, 0.14, 0.34, 97, -0.600, -2.900, -69.100, 733, --, 100, 17, 21983, -20442, 4976, 5130, 30, 14, 1570655317.938, 18, 100, 1024, 1024, 1024, 1024, 0, , 3641, 3688, 3670, 3658, 3684, 3666, 0, 1, 10403, -89.900, 0.000, -70.700, -0.100, 0.100, -2.900, 0.0, , , , , , , 93, , , 39, 39, 39, ,0.0036100
 40.0403239, -105.5691663, 11.500, 15:08:38.039, 16, 0.14, 0.34, 97, -0.600, -2.900, -69.100, 733, --, 100, 17, 21983, -20442, 4976, 5130, 30, 14, 1570655318.039, 119, 100, 1024, 1024, 1024, 1024, 0, , 3641, 3688, 3670, 3658, 3684, 3666, 0, 1, 10504, -89.900, 0.000, -70.700, -0.100, 0.100, -2.900, 0.0, , , , , , , 93, , , 39, 39, 39, ,0.0036100
 40.0403235, -105.5691658, 12.100, 15:08:38.142, 16, 0.10, 0.40, 97, 0.600, -3.700, -68.900, 733, --, 100, 17, 21983, -20442, 4976, 5130, 30, 14, 1570655318.142, 1, 100, 1024, 1024, 1024, 1024, 0, , 3641, 3688, 3670, 3658, 3684, 3666, 0, 1, 10607, -90.000, 0.000, -70.700, -0.100, 0.000, -2.800, 0.0, , , , , , , 93, , , 39, 39, 39, ,0.0036100
 40.0403235, -105.5691658, 12.100, 15:08:38.239, 16, 0.10, 0.40, 97, 0.600, -3.700, -68.900, 733, --, 100, 17, 21983, -20442, 4976, 5130, 30, 14, 1570655318.239, 98, 100, 1024, 1024, 1024, 1024, 0, , 3641, 3688, 3670, 3658, 3684, 3666, 0, 1, 10704, -90.000, 0.000, -70.700, -0.100, 0.000, -2.800, 0.0, , , , , , , 93, , , 39, 39, 39, ,0.0036100
 40.0403231, -105.5691657, 12.700, 15:08:38.341, 16, 0.10, 0.43, 97, 2.200, -2.300, -69.200, 733, --, 99, 17, 21983, -20442, 4976, 5130, 30, 14, 1570655318.341, 1, 99, 1024, 1024, 1024, 1024, 0, , 3641, 3688, 3670, 3658, 3684, 3666, 0, 1, 10806, -89.900, 0.000, -70.600, -0.100, 0.000, -2.800, 0.0, , , , , , , 93, , , 39, 39, 39, ,0.0036100
 40.0403231, -105.5691657, 12.700, 15:08:38.439, 16, 0.10, 0.43, 97, 2.200, -2.300, -69.200, 733, --, 99, 17, 21983, -20442, 4976, 5130, 30, 14, 1570655318.439, 99, 99, 1024, 1024, 1024, 1024, 0, , 3641, 3688, 3670, 3658, 3684, 3666, 0, 1, 10904, -89.900, 0.000, -70.600, -0.100, 0.000, -2.800, 0.0, , , , , , , 93, , , 39, 39, 39, ,0.0036100
 40.0403230, -105.5691656, 13.000, 15:08:38.538, 16, 0.10, 0.44, 97, 2.900, -1.300, -69.300, 733, --, 99, 17, 21983, -20442, 4976, 5130, 30, 14, 1570655318.539, 91, 99, 1024, 1024, 1024, 1024, 0, , 3641, 3688, 3670, 3658, 3684, 3666, 0, 1, 11003, -89.900, 0.000, -70.600, -0.100, 0.000, -2.800, 0.0, , , , , , , 93, , , 39, 39, 39, ,0.0036100
 40.0403228, -105.5691655, 13.300, 15:08:38.638, 16, 0.10, 0.46, 97, 2.500, -1.700, -69.400, 733, --, 99, 17, 21983, -20442, 4976, 5130, 30, 14, 1570655318.639, 74, 99, 1024, 1024, 1024, 1024, 0, , 3641, 3688, 3670, 3658, 3684, 3666, 0, 1, 11103, -89.900, 0.000, -70.500, -0.100, 0.000, -2.800, 0.0, , , , , , , 93, , , 39, 39, 39, ,0.0036100
 40.0403227, -105.5691654, 13.700, 15:08:38.739, 16, 0.00, 0.47, 97, 2.700, -2.600, -69.400, 733, --, 99, 17, 21983, -20442, 4976, 5130, 30, 14, 1570655318.739, 75, 99, 1024, 1024, 1024, 1024, 0, , 3641, 3688, 3670, 3658, 3684, 3666, 0, 1, 11204, -90.000, 0.000, -70.500, 0.000, 0.000, -2.900, 0.0, , , , , , , 93, , , 39, 39, 39, ,0.0036100
 40.0403227, -105.5691652, 14.000, 15:08:38.838, 16, 0.00, 0.49, 97, 2.700, -3.300, -69.400, 733, --, 99, 17, 21928, -21380, 4976, 5130, 30, 14, 1570655318.839, 63, 99, 1024, 1024, 1024, 1024, 0, , 3641, 3688, 3670, 3658, 3684, 3666, 0, 1, 11303, -90.000, 0.000, -70.500, 0.000, 0.000, -2.800, 0.0, , , , , , , 93, , , 39, 39, 39, ,0.0036100
 40.0403227, -105.5691650, 14.200, 15:08:38.939, 16, 0.00, 0.50, 97, 2.300, -3.400, -69.300, 733, --, 97, 17, 21928, -21380, 4976, 5130, 30, 14, 1570655318.939, 62, 97, 1024, 1024, 1024, 1024, 0, , 3641, 3688, 3670, 3658, 3684, 3666, 0, 1, 11404, -90.000, 0.000, -70.500, 0.000, 0.000, -2.700, 0.0, , , , , , , 93, , , 39, 39, 39, ,0.0036100
 40.0403227, -105.5691649, 14.600, 15:08:39.039, 16, 0.00, 0.51, 97, 0.400, -3.500, -69.000, 733, --, 97, 17, 21928, -21380, 4976, 5130, 30, 14, 1570655319.039, 63, 97, 1024, 1024, 1024, 1024, 0, , 3641, 3688, 3670, 3658, 3684, 3666, 0, 1, 11504, -90.000, 0.000, -70.400, 0.000, 0.000, -2.800, 0.0, , , , , , , 93, , , 39, 39, 39, ,0.0036100
 40.0403227, -105.5691648, 14.900, 15:08:39.139, 16, 0.00, 0.52, 97, -0.500, -3.100, -68.700, 733, --, 97, 17, 21928, -21380, 4976, 5130, 30, 14, 1570655319.139, 61, 97, 1024, 1024, 1024, 1024, 0, , 3641, 3688, 3670, 3658, 3684, 3666, 0, 1, 11604, -89.900, 0.000, -70.400, 0.000, 0.000, -2.800, 0.0, , , , , , , 93, , , 39, 39, 39, ,0.0036100
 40.0403228, -105.5691647, 15.500, 15:08:39.239, 16, 0.00, 0.52, 97, -1.000, -2.200, -68.000, 733, --, 97, 17, 21928, -21380, 4976, 5130, 30, 14, 1570655319.240, 58, 97, 1024, 1024, 1024, 1024, 0, , 3641, 3688, 3670, 3658, 3684, 3666, 0, 1, 11704, -89.900, 0.000, -70.400, 0.000, 0.000, -2.800, 0.0, , , , , , , 93, , , 39, 39, 39, ,0.0036100
 40.0403229, -105.5691647, 15.800, 15:08:39.339, 16, 0.00, 0.52, 97, -0.800, -2.100, -68.000, 733, --, 97, 17, 21928, -21380, 4976, 5130, 30, 14, 1570655319.340, 59, 97, 1024, 1024, 1024, 1024, 0, , 3627, 3663, 3651, 3642, 3649, 3661, 0, 1, 11804, -89.900, 0.000, -70.400, 0.000, 0.000, -2.700, 0.0, , , , , , , 93, , , 39, 39, 39, ,0.0036100
 40.0403229, -105.5691646, 16.100, 15:08:39.438, 16, 0.00, 0.52, 97, -1.200, -2.500, -68.300, 733, --, 95, 17, 21928, -21380, 4976, 5130, 30, 14, 1570655319.438, 29, 95, 1024, 1024, 1024, 1024, 0, , 3627, 3663, 3651, 3642, 3649, 3661, 0, 1, 11903, -90.000, 0.000, -70.300, 0.000, 0.000, -2.600, 0.0, , , , , , , 93, , , 39, 39, 39, ,0.0036100
 40.0403230, -105.5691645, 16.300, 15:08:39.539, 16, 0.00, 0.52, 97, -1.400, -3.200, -68.600, 733, --, 95, 17, 21928, -21380, 4976, 5130, 30, 14, 1570655319.539, 30, 95, 1024, 1024, 1024, 1024, 0, , 3627, 3663, 3651, 3642, 3649, 3661, 0, 1, 12004, -90.000, 0.000, -70.300, 0.000, 0.000, -2.600, 0.0, , , , , , , 93, , , 39, 39, 39, ,0.0036100
 40.0403231, -105.5691645, 16.600, 15:08:39.639, 16, 0.00, 0.52, 97, -1.500, -3.200, -68.800, 733, --, 95, 17, 21928, -21380, 4976, 5130, 30, 14, 1570655319.639, 32, 95, 1024, 1024, 1024, 1024, 0, , 3627, 3663, 3651, 3642, 3649, 3661, 0, 1, 12104, -89.900, 0.000, -70.300, 0.000, 0.000, -2.500, 0.0, , , , , , , 93, , , 39, 39, 39, ,0.0036100
 40.0403231, -105.5691646, 16.900, 15:08:39.739, 16, 0.00, 0.52, 97, -1.700, -2.800, -68.800, 733, --, 95, 18, 21928, -21380, 4976, 5130, 30, 14, 1570655319.740, 37, 95, 1024, 1024, 1024, 1024, 0, , 3627, 3663, 3651, 3642, 3649, 3661, 0, 1, 12204, -89.900, 0.000, -70.300, 0.000, 0.000, -2.600, 0.0, , , , , , , 93, , , 39, 39, 39, ,0.0036100
 40.0403231, -105.5691646, 17.200, 15:08:39.838, 16, 0.00, 0.51, 97, -1.700, -2.300, -68.800, 733, --, 91, 18, 21928, -21380, 4976, 5130, 30, 14, 1570655319.839, 30, 91, 1024, 1024, 1024, 1024, 0, , 3627, 3663, 3651, 3642, 3649, 3661, 0, 1, 12303, -89.900, 0.000, -70.300, 0.000, 0.000, -2.700, 0.0, , , , , , , 93, , , 39, 39, 39, ,0.0036100
 40.0403232, -105.5691646, 17.400, 15:08:39.939, 16, 0.00, 0.51, 97, -2.000, -1.700, -68.700, 733, --, 91, 18, 21928, -21380, 4976, 5130, 30, 14, 1570655319.940, 31, 91, 1024, 1024, 1024, 1024, 0, , 3627, 3663, 3651, 3642, 3649, 3661, 0, 1, 12404, -89.900, 0.000, -70.200, 0.000, 0.000, -2.700, 0.0, , , , , , , 93, , , 39, 39, 39, ,0.0036100
 40.0403232, -105.5691647, 17.700, 15:08:40.038, 16, 0.00, 0.51, 97, -0.600, -0.700, -68.300, 733, --, 91, 18, 21928, -21380, 4976, 5130, 30, 14, 1570655320.039, 29, 91, 1024, 1024, 1024, 1024, 0, , 3627, 3663, 3651, 3642, 3649, 3661, 0, 1, 12504, -89.900, 0.000, -70.200, 0.000, 0.000, -2.600, 0.0, , , , , , , 93, , , 39, 39, 39, ,0.0036100
 40.0403232, -105.5691646, 18.000, 15:08:40.139, 16, 0.00, 0.51, 97, 0.500, -0.500, -67.800, 733, --, 91, 18, 21928, -21380, 4976, 5130, 30, 14, 1570655320.139, 18, 91, 1024, 1024, 1024, 1024, 0, , 3627, 3663, 3651, 3642, 3649, 3661, 0, 1, 12604, -89.900, 0.000, -70.200, 0.000, 0.000, -2.600, 0.0, , , , , , , 93, , , 39, 39, 39, ,0.0036100
 40.0403232, -105.5691646, 18.000, 15:08:40.239, 16, 0.00, 0.51, 97, 0.500, -0.500, -67.800, 733, --, 91, 18, 21928, -21380, 4976, 5130, 30, 14, 1570655320.239, 118, 91, 1024, 1024, 1024, 1024, 0, , 3627, 3663, 3651, 3642, 3649, 3661, 0, 1, 12703, -89.900, 0.000, -70.200, 0.000, 0.000, -2.600, 0.0, , , , , , , 93, , , 39, 39, 39, ,0.0036100
 40.0403232, -105.5691646, 18.500, 15:08:40.338, 16, 0.00, 0.51, 97, -1.300, -3.400, -68.100, 733, --, 86, 18, 21928, -21380, 4976, 5130, 30, 14, 1570655320.339, 5, 86, 1024, 1024, 1024, 1024, 0, , 3627, 3663, 3651, 3642, 3649, 3661, 0, 1, 12804, -90.000, 0.000, -70.200, 0.000, 0.000, -2.700, 0.0, , , , , , , 93, , , 39, 39, 39, ,0.0036100
 40.0403233, -105.5691646, 18.700, 15:08:40.439, 16, 0.00, 0.51, 97, -1.800, -3.900, -68.400, 733, --, 86, 18, 21928, -21380, 4976, 5130, 30, 14, 1570655320.439, 20, 86, 1024, 1024, 1024, 1024, 0, , 3627, 3663, 3651, 3642, 3649, 3661, 0, 1, 12904, -89.900, 0.000, -70.200, 0.000, 0.000, -2.700, 0.0, , , , , , , 93, , , 39, 39, 39, ,0.0036100
 40.0403233, -105.5691646, 18.700, 15:08:40.538, 16, 0.00, 0.51, 97, -1.800, -3.900, -68.400, 733, --, 86, 18, 21928, -21380, 4976, 5130, 30, 14, 1570655320.539, 119, 86, 1024, 1024, 1024, 1024, 0, , 3627, 3663, 3651, 3642, 3649, 3661, 0, 1, 13003, -89.900, 0.000, -70.200, 0.000, 0.000, -2.700, 0.0, , , , , , , 93, , , 39, 39, 39, ,0.0036100
 40.0403233, -105.5691646, 19.000, 15:08:40.638, 16, 0.00, 0.50, 97, -1.400, -3.900, -68.700, 733, --, 86, 18, 21928, -21380, 4976, 5130, 30, 14, 1570655320.639, 97, 86, 1024, 1024, 1024, 1024, 0, , 3627, 3663, 3651, 3642, 3649, 3661, 0, 1, 13103, -90.000, 0.000, -70.200, 0.000, 0.000, -2.700, 0.0, , , , , , , 93, , , 39, 39, 39, ,0.0036100
 40.0403233, -105.5691648, 19.200, 15:08:40.739, 16, 0.00, 0.49, 97, -1.200, -3.500, -69.100, 733, --, 86, 18, 21928, -21380, 4976, 5130, 30, 14, 1570655320.739, 89, 86, 1024, 1024, 1024, 1024, 0, , 3627, 3663, 3651, 3642, 3649, 3661, 0, 1, 13204, -89.900, 0.000, -70.100, 0.000, 0.000, -2.800, 0.0, , , , , , , 93, , , 39, 39, 39, ,0.0036100
 40.0403233, -105.5691650, 19.500, 15:08:40.838, 16, 0.10, 0.47, 97, -1.100, -3.000, -69.400, 733, --, 86, 18, 21741, -22702, 4976, 5130, 30, 14, 1570655320.839, 82, 86, 1024, 1024, 1024, 1024, 0, , 3573, 3640, 3597, 3613, 3615, 3623, 0, 1, 13303, -89.900, 0.000, -70.100, 0.000, -0.100, -2.900, 0.0, , , , , , , 93, , , 39, 39, 39, ,0.0036100
 40.0403233, -105.5691653, 19.800, 15:08:40.939, 16, 0.10, 0.45, 97, -0.100, -2.400, -69.700, 733, --, 87, 18, 21741, -22702, 4976, 5130, 30, 14, 1570655320.939, 81, 87, 1024, 1024, 1024, 1024, 0, , 3573, 3640, 3597, 3613, 3615, 3623, 0, 1, 13404, -89.900, 0.000, -70.100, 0.000, -0.100, -3.000, 0.0, , , , , , , 93, , , 39, 39, 39, ,0.0036100
 40.0403232, -105.5691656, 20.100, 15:08:41.038, 16, 0.10, 0.43, 97, 1.200, -1.400, -70.000, 733, --, 87, 18, 21741, -22702, 4976, 5130, 30, 14, 1570655321.039, 70, 87, 1024, 1024, 1024, 1024, 0, , 3573, 3640, 3597, 3613, 3615, 3623, 0, 1, 13503, -89.900, 0.000, -70.100, 0.000, -0.100, -3.000, 0.0, , , , , , , 93, , , 39, 39, 39, ,0.0036100
 40.0403232, -105.5691659, 20.400, 15:08:41.138, 16, 0.10, 0.41, 97, 1.600, -0.700, -70.200, 733, --, 87, 18, 21741, -22702, 4976, 5130, 30, 14, 1570655321.139, 70, 87, 1024, 1024, 1024, 1024, 0, , 3573, 3640, 3597, 3613, 3615, 3623, 0, 1, 13603, -89.900, 0.000, -70.100, 0.000, -0.100, -3.200, 0.0, , , , , , , 93, , , 39, 39, 39, ,0.0036100
 40.0403231, -105.5691662, 20.800, 15:08:41.239, 16, 0.10, 0.39, 97, 1.400, -0.300, -70.100, 733, --, 87, 18, 21741, -22702, 4976, 5130, 30, 14, 1570655321.239, 80, 87, 1024, 1024, 1024, 1024, 0, , 3573, 3640, 3597, 3613, 3615, 3623, 0, 1, 13704, -89.900, 0.000, -70.100, 0.000, -0.100, -3.300, 0.0, , , , , , , 93, , , 39, 39, 39, ,0.0036100
 40.0403232, -105.5691665, 21.400, 15:08:41.338, 16, 0.00, 0.37, 97, 1.200, -0.900, -69.500, 733, --, 87, 18, 21347, -25529, 4976, 5130, 30, 14, 1570655321.338, 76, 87, 1024, 1024, 1024, 1024, 0, , 3522, 3581, 3551, 3542, 3564, 3547, 0, 1, 13803, -89.900, 0.000, -70.100, 0.000, 0.000, -3.200, 0.0, , , , , , , 93, , , 39, 39, 39, ,0.0036100
 40.0403232, -105.5691665, 21.400, 15:08:41.438, 16, 0.00, 0.37, 97, 1.200, -0.900, -69.500, 733, --, 96, 18, 21347, -25529, 4976, 5130, 30, 14, 1570655321.439, 176, 96, 1024, 1024, 1024, 1024, 0, , 3522, 3581, 3551, 3542, 3564, 3547, 0, 1, 13903, -89.900, 0.000, -70.000, 0.000, 0.000, -3.200, 0.0, , , , , , , 93, , , 39, 39, 39, ,0.0036100
 40.0403231, -105.5691667, 22.000, 15:08:41.539, 16, 0.00, 0.36, 97, 0.200, -1.500, -69.300, 733, --, 96, 18, 21347, -25529, 4976, 5130, 30, 14, 1570655321.539, 56, 96, 1024, 1024, 1024, 1024, 0, , 3522, 3581, 3551, 3542, 3564, 3547, 0, 1, 14004, -90.000, 0.000, -70.000, 0.000, 0.000, -3.100, 0.0, , , , , , , 93, , , 39, 39, 39, ,0.0036100
 40.0403230, -105.5691667, 22.300, 15:08:41.639, 16, 0.00, 0.36, 97, 0.500, -1.800, -69.200, 733, --, 96, 18, 21347, -25529, 4976, 5130, 30, 14, 1570655321.639, 40, 96, 1024, 1024, 1024, 1024, 0, , 3522, 3581, 3551, 3542, 3564, 3547, 0, 1, 14104, -90.000, 0.000, -70.000, 0.000, 0.000, -3.100, 0.0, , , , , , , 93, , , 39, 39, 39, ,0.0036100
 40.0403229, -105.5691668, 22.700, 15:08:41.739, 16, 0.00, 0.37, 97, 1.000, -2.200, -69.200, 733, --, 96, 18, 21347, -25529, 4976, 5130, 30, 14, 1570655321.739, 49, 96, 1024, 1024, 1024, 1024, 0, , 3522, 3581, 3551, 3542, 3564, 3547, 0, 1, 14204, -90.000, 0.000, -70.000, 0.000, 0.000, -3.100, 0.0, , , , , , , 93, , , 39, 39, 39, ,0.0036100
 40.0403227, -105.5691668, 23.000, 15:08:41.839, 16, 0.00, 0.37, 97, 1.300, -2.500, -69.100, 733, --, 96, 18, 21347, -25529, 4976, 5130, 30, 14, 1570655321.839, 49, 96, 1024, 1024, 1024, 1024, 0, , 3522, 3581, 3551, 3542, 3564, 3547, 0, 1, 14304, -90.000, 0.000, -70.000, 0.000, 0.000, -3.100, 0.0, , , , , , , 93, , , 39, 39, 39, ,0.0036100
 40.0403226, -105.5691668, 23.300, 15:08:41.939, 16, 0.00, 0.38, 97, 1.700, -2.400, -69.000, 733, --, 96, 18, 21347, -25529, 4976, 5130, 30, 14, 1570655321.939, 29, 96, 1024, 1024, 1024, 1024, 0, , 3522, 3581, 3551, 3542, 3564, 3547, 0, 1, 14404, -89.900, 0.000, -70.000, 0.000, 0.000, -3.100, 0.0, , , , , , , 93, , , 39, 39, 39, ,0.0036100
 40.0403225, -105.5691669, 23.600, 15:08:42.039, 16, 0.00, 0.39, 97, 2.100, -1.800, -68.800, 733, --, 96, 18, 21347, -25529, 4976, 5130, 30, 14, 1570655322.039, 15, 96, 1024, 1024, 1024, 1024, 0, , 3522, 3581, 3551, 3542, 3564, 3547, 0, 1, 14504, -89.900, 0.000, -70.000, 0.000, 0.000, -3.000, 0.0, , , , , , , 93, , , 39, 39, 39, ,0.0036100
 40.0403225, -105.5691669, 23.600, 15:08:42.139, 16, 0.00, 0.39, 97, 2.100, -1.800, -68.800, 733, --, 96, 18, 21347, -25529, 4976, 5130, 30, 14, 1570655322.139, 115, 96, 1024, 1024, 1024, 1024, 0, , 3522, 3581, 3551, 3542, 3564, 3547, 0, 1, 14603, -89.900, 0.000, -70.000, 0.000, 0.000, -3.000, 0.0, , , , , , , 93, , , 39, 39, 39, ,0.0036100
 40.0403222, -105.5691668, 24.300, 15:08:42.238, 16, 0.00, 0.41, 97, 2.200, -3.100, -68.900, 733, --, 96, 18, 21227, -25362, 4976, 5130, 30, 14, 1570655322.238, 29, 96, 1024, 1024, 1024, 1024, 0, , 3552, 3583, 3570, 3546, 3571, 3548, 0, 1, 14703, -90.000, 0.000, -70.000, 0.000, 0.000, -3.200, 0.0, , , , , , , 93, , , 39, 39, 39, ,0.0036100
 40.0403221, -105.5691668, 24.600, 15:08:42.338, 16, 0.00, 0.42, 97, 2.200, -3.600, -69.000, 733, --, 92, 18, 21227, -25362, 4976, 5130, 30, 14, 1570655322.338, 3, 92, 1024, 1024, 1024, 1024, 0, , 3552, 3583, 3570, 3546, 3571, 3548, 0, 1, 14803, -90.000, 0.000, -69.900, 0.000, 0.000, -3.200, 0.0, , , , , , , 93, , , 39, 39, 39, ,0.0036100
 40.0403221, -105.5691668, 24.600, 15:08:42.438, 16, 0.00, 0.42, 97, 2.200, -3.600, -69.000, 733, --, 92, 18, 21227, -25362, 4976, 5130, 30, 14, 1570655322.439, 104, 92, 1024, 1024, 1024, 1024, 0, , 3552, 3583, 3570, 3546, 3571, 3548, 0, 1, 14903, -90.000, 0.000, -69.900, 0.000, 0.000, -3.200, 0.0, , , , , , , 93, , , 39, 39, 39, ,0.0036100
 40.0403220, -105.5691667, 24.900, 15:08:42.538, 16, 0.00, 0.43, 97, 2.100, -3.800, -69.200, 733, --, 92, 18, 21227, -25362, 4976, 5130, 30, 14, 1570655322.539, 90, 92, 1024, 1024, 1024, 1024, 0, , 3552, 3583, 3570, 3546, 3571, 3548, 0, 1, 15003, -90.000, 0.000, -69.900, 0.000, 0.000, -2.900, 0.0, , , , , , , 93, , , 39, 39, 39, ,0.0036100
 40.0403219, -105.5691667, 25.200, 15:08:42.638, 16, 0.00, 0.44, 97, 1.800, -3.400, -69.200, 733, --, 92, 18, 21227, -25362, 4976, 5130, 30, 14, 1570655322.639, 89, 92, 1024, 1024, 1024, 1024, 0, , 3552, 3583, 3570, 3546, 3571, 3548, 0, 1, 15103, -89.900, 0.000, -69.900, 0.000, 0.000, -2.800, 0.0, , , , , , , 93, , , 39, 39, 39, ,0.0036100
 40.0403218, -105.5691667, 25.500, 15:08:42.738, 16, 0.00, 0.45, 97, 1.700, -2.800, -69.100, 733, --, 92, 18, 21227, -25362, 4976, 5130, 30, 14, 1570655322.739, 90, 92, 1024, 1024, 1024, 1024, 0, , 3552, 3583, 3570, 3546, 3571, 3548, 0, 1, 15203, -89.900, 0.000, -69.900, 0.000, 0.000, -2.800, 0.0, , , , , , , 93, , , 39, 39, 39, ,0.0036100
 40.0403217, -105.5691668, 25.800, 15:08:42.838, 16, 0.00, 0.45, 97, 1.700, -2.600, -68.900, 733, --, 92, 18, 21227, -25362, 4976, 5130, 30, 14, 1570655322.838, 97, 92, 1024, 1024, 1024, 1024, 0, , 3552, 3583, 3570, 3546, 3571, 3548, 0, 1, 15303, -89.900, 0.000, -69.900, 0.000, 0.000, -2.900, 0.0, , , , , , , 93, , , 39, 39, 39, ,0.0036100
 40.0403217, -105.5691667, 26.100, 15:08:42.938, 16, 0.00, 0.46, 97, 1.400, -2.700, -68.700, 733, --, 92, 18, 21227, -25362, 4976, 5130, 30, 14, 1570655322.939, 98, 92, 1024, 1024, 1024, 1024, 0, , 3552, 3583, 3570, 3546, 3571, 3548, 0, 1, 15403, -89.900, 0.000, -70.000, 0.000, 0.000, -2.900, 0.0, , , , , , , 93, , , 39, 39, 39, ,0.0036100
 40.0403217, -105.5691667, 26.400, 15:08:43.038, 16, 0.00, 0.46, 97, 1.000, -2.900, -68.700, 733, --, 92, 18, 21227, -25362, 4976, 5130, 30, 14, 1570655323.039, 98, 92, 1024, 1024, 1024, 1024, 0, , 3552, 3583, 3570, 3546, 3571, 3548, 0, 1, 15503, -89.900, 0.000, -69.900, 0.000, 0.000, -2.900, 0.0, , , , , , , 93, , , 39, 39, 39, ,0.0036100
 40.0403216, -105.5691668, 26.700, 15:08:43.138, 16, 0.00, 0.46, 97, 0.700, -2.800, -68.800, 733, --, 92, 18, 21227, -25362, 4976, 5130, 30, 14, 1570655323.138, 89, 92, 1024, 1024, 1024, 1024, 0, , 3552, 3583, 3570, 3546, 3571, 3548, 0, 1, 15603, -89.900, 0.000, -69.900, 0.000, 0.000, -2.900, 0.0, , , , , , , 93, , , 39, 39, 39, ,0.0036100
 40.0403216, -105.5691668, 26.900, 15:08:43.238, 16, 0.00, 0.46, 97, 0.700, -2.000, -68.800, 733, --, 92, 18, 21227, -25362, 4976, 5130, 30, 14, 1570655323.239, 79, 92, 1024, 1024, 1024, 1024, 0, , 3552, 3583, 3570, 3546, 3571, 3548, 0, 1, 15703, -89.900, 0.000, -70.000, 0.000, 0.000, -2.800, 0.0, , , , , , , 93, , , 39, 39, 39, ,0.0036100
 40.0403216, -105.5691669, 27.200, 15:08:43.338, 16, 0.10, 0.46, 97, 1.700, -0.800, -68.900, 733, --, 92, 18, 21597, -21698, 4976, 5130, 30, 14, 1570655323.339, 88, 92, 1024, 1024, 1024, 1024, 0, , 3587, 3615, 3611, 3587, 3623, 3611, 0, 1, 15803, -89.900, 0.000, -70.000, 0.100, 0.000, -2.800, 0.0, , , , , , , 93, , , 39, 39, 39, ,0.0036100
 40.0403216, -105.5691670, 27.500, 15:08:43.438, 16, 0.10, 0.45, 97, 2.100, -0.200, -69.400, 733, --, 96, 18, 21597, -21698, 4976, 5130, 30, 14, 1570655323.438, 58, 96, 1024, 1024, 1024, 1024, 0, , 3587, 3615, 3611, 3587, 3623, 3611, 0, 1, 15903, -89.900, 0.000, -70.000, 0.100, 0.000, -2.900, 0.0, , , , , , , 93, , , 39, 39, 39, ,0.0036100
 40.0403217, -105.5691670, 27.800, 15:08:43.538, 16, 0.10, 0.45, 97, 1.300, -0.100, -69.800, 733, --, 96, 18, 21597, -21698, 4976, 5130, 30, 14, 1570655323.539, 50, 96, 1024, 1024, 1024, 1024, 0, , 3587, 3615, 3611, 3587, 3623, 3611, 0, 1, 16003, -89.900, 0.000, -69.900, 0.100, 0.000, -2.900, 0.0, , , , , , , 93, , , 39, 39, 39, ,0.0036100
 40.0403217, -105.5691670, 28.100, 15:08:43.638, 16, 0.10, 0.45, 97, 0.600, -0.600, -69.800, 733, --, 96, 18, 21597, -21698, 4976, 5130, 30, 14, 1570655323.639, 55, 96, 1024, 1024, 1024, 1024, 0, , 3587, 3615, 3611, 3587, 3623, 3611, 0, 1, 16103, -90.000, 0.000, -70.000, 0.100, 0.000, -3.000, 0.0, , , , , , , 93, , , 39, 39, 39, ,0.0036100
 40.0403217, -105.5691670, 28.400, 15:08:43.738, 16, 0.10, 0.44, 97, 0.700, -1.200, -69.600, 733, --, 96, 18, 21597, -21698, 4976, 5130, 30, 14, 1570655323.738, 57, 96, 1024, 1024, 1024, 1024, 0, , 3587, 3615, 3611, 3587, 3623, 3611, 0, 1, 16203, -90.000, 0.000, -69.900, 0.100, 0.000, -3.000, 0.0, , , , , , , 93, , , 39, 39, 39, ,0.0036100
 40.0403218, -105.5691668, 29.000, 15:08:43.838, 16, 0.10, 0.44, 97, 0.600, -2.400, -69.000, 733, --, 96, 18, 21597, -21698, 4976, 5130, 30, 14, 1570655323.838, 57, 96, 1024, 1024, 1024, 1024, 0, , 3587, 3615, 3611, 3587, 3623, 3611, 0, 1, 16303, -90.000, 0.000, -70.000, 0.100, 0.000, -3.000, 0.0, , , , , , , 93, , , 39, 39, 39, ,0.0036100
 40.0403219, -105.5691668, 29.300, 15:08:43.938, 16, 0.10, 0.44, 97, 0.400, -2.300, -68.800, 733, --, 97, 18, 21597, -21698, 4976, 5130, 30, 14, 1570655323.939, 57, 97, 1024, 1024, 1024, 1024, 0, , 3587, 3615, 3611, 3587, 3623, 3611, 0, 1, 16403, -90.000, 0.000, -70.000, 0.100, 0.000, -3.100, 0.0, , , , , , , 93, , , 39, 39, 39, ,0.0036100
 40.0403220, -105.5691667, 29.600, 15:08:44.038, 16, 0.20, 0.43, 97, 0.000, -2.200, -68.700, 733, --, 97, 18, 21597, -21698, 4976, 5130, 30, 14, 1570655324.038, 35, 97, 1024, 1024, 1024, 1024, 0, , 3587, 3615, 3611, 3587, 3623, 3611, 0, 1, 16503, -89.900, 0.000, -69.900, 0.200, 0.000, -3.000, 0.1, , , , , , , 93, , , 39, 39, 39, ,0.0036100
 40.0403222, -105.5691667, 29.900, 15:08:44.138, 16, 0.20, 0.42, 97, -0.600, -2.100, -68.700, 733, --, 97, 18, 21597, -21698, 4976, 5130, 30, 14, 1570655324.139, 45, 97, 1024, 1024, 1024, 1024, 0, , 3587, 3615, 3611, 3587, 3623, 3611, 0, 1, 16603, -89.900, 0.000, -69.900, 0.200, 0.000, -3.100, 0.1, , , , , , , 93, , , 39, 39, 39, ,0.0036100
 40.0403224, -105.5691666, 30.200, 15:08:44.238, 16, 0.20, 0.41, 97, -1.500, -2.100, -68.700, 733, --, 97, 18, 21597, -21698, 4976, 5130, 30, 14, 1570655324.239, 27, 97, 1024, 1024, 1024, 1024, 0, , 3587, 3615, 3611, 3587, 3623, 3611, 0, 1, 16703, -89.900, 0.000, -69.900, 0.200, 0.000, -3.000, 0.1, , , , , , , 93, , , 39, 39, 39, ,0.0036100
 40.0403225, -105.5691665, 30.500, 15:08:44.338, 16, 0.20, 0.41, 97, -1.800, -2.000, -68.400, 733, --, 97, 18, 21502, -22375, 4976, 5130, 30, 14, 1570655324.339, 31, 97, 1024, 1024, 1024, 1024, 0, , 3587, 3615, 3611, 3587, 3623, 3611, 0, 1, 16803, -89.900, 0.000, -69.900, 0.200, 0.000, -3.000, 0.1, , , , , , , 93, , , 39, 39, 39, ,0.0036100
 40.0403227, -105.5691664, 30.800, 15:08:44.438, 16, 0.20, 0.40, 97, -1.900, -1.800, -68.100, 733, --, 95, 18, 21502, -22375, 4976, 5130, 30, 14, 1570655324.439, 32, 95, 1024, 1024, 1024, 1024, 0, , 3587, 3615, 3611, 3587, 3623, 3611, 0, 1, 16903, -89.900, 0.000, -69.900, 0.200, 0.000, -3.100, 0.1, , , , , , , 93, , , 39, 39, 39, ,0.0036100
 40.0403229, -105.5691664, 31.200, 15:08:44.538, 16, 0.20, 0.39, 97, -2.200, -2.000, -68.000, 733, --, 95, 18, 21502, -22375, 4976, 5130, 30, 14, 1570655324.539, 17, 95, 1024, 1024, 1024, 1024, 0, , 3587, 3615, 3611, 3587, 3623, 3611, 0, 1, 17003, -90.000, 0.000, -69.900, 0.200, 0.000, -3.000, 0.1, , , , , , , 93, , , 39, 39, 39, ,0.0036100
 40.0403230, -105.5691662, 31.500, 15:08:44.638, 16, 0.22, 0.39, 97, -2.500, -2.700, -68.000, 733, --, 95, 18, 21502, -22375, 4976, 5130, 30, 14, 1570655324.638, 18, 95, 1024, 1024, 1024, 1024, 0, , 3587, 3615, 3611, 3587, 3623, 3611, 0, 1, 17103, -89.900, 0.000, -70.000, 0.200, 0.100, -3.000, 0.1, , , , , , , 93, , , 39, 39, 39, ,0.0036100
 40.0403232, -105.5691661, 31.800, 15:08:44.739, 16, 0.22, 0.39, 97, -3.200, -3.000, -68.400, 733, --, 95, 18, 21502, -22375, 4976, 5130, 30, 14, 1570655324.739, 18, 95, 1024, 1024, 1024, 1024, 0, , 3543, 3624, 3581, 3577, 3593, 3576, 0, 1, 17204, -89.900, 0.000, -69.900, 0.200, 0.100, -2.900, 0.1, , , , , , , 93, , , 39, 39, 39, ,0.0036100
 40.0403234, -105.5691659, 32.100, 15:08:44.838, 16, 0.20, 0.40, 97, -4.100, -2.900, -69.000, 733, --, 94, 18, 21502, -22375, 4976, 5130, 30, 14, 1570655324.839, 3, 94, 1024, 1024, 1024, 1024, 0, , 3543, 3624, 3581, 3577, 3593, 3576, 0, 1, 17303, -89.900, 0.000, -69.900, 0.200, 0.000, -3.000, 0.1, , , , , , , 93, , , 39, 39, 39, ,0.0036100
 40.0403236, -105.5691658, 32.400, 15:08:44.940, 16, 0.20, 0.40, 97, -4.500, -2.400, -69.400, 733, --, 94, 18, 21502, -22375, 4976, 5130, 30, 14, 1570655324.940, 1, 94, 1024, 1024, 1024, 1024, 0, , 3543, 3624, 3581, 3577, 3593, 3576, 0, 1, 17405, -89.900, 0.000, -69.900, 0.200, 0.000, -2.900, 0.1, , , , , , , 93, , , 39, 39, 39, ,0.0036100
 40.0403237, -105.5691657, 32.700, 15:08:45.040, 16, 0.10, 0.41, 97, -4.500, -2.400, -69.500, 733, --, 94, 18, 21502, -22375, 4976, 5130, 30, 14, 1570655325.040, 1, 94, 1024, 1024, 1024, 1024, 0, , 3543, 3624, 3581, 3577, 3593, 3576, 0, 1, 17505, -89.900, 0.000, -69.900, 0.100, 0.000, -2.900, 0.0, , , , , , , 93, , , 39, 39, 39, ,0.0036100
 40.0403237, -105.5691657, 32.700, 15:08:45.139, 16, 0.10, 0.41, 97, -4.500, -2.400, -69.500, 733, --, 94, 18, 21502, -22375, 4976, 5130, 30, 14, 1570655325.139, 100, 94, 1024, 1024, 1024, 1024, 0, , 3543, 3624, 3581, 3577, 3593, 3576, 0, 1, 17604, -89.900, 0.000, -69.900, 0.100, 0.000, -2.900, 0.0, , , , , , , 93, , , 39, 39, 39, ,0.0036100
 40.0403239, -105.5691656, 33.000, 15:08:45.238, 16, 0.10, 0.41, 97, -3.900, -2.400, -69.400, 733, --, 94, 18, 21502, -22375, 4976, 5130, 30, 14, 1570655325.238, 89, 94, 1024, 1024, 1024, 1024, 0, , 3543, 3624, 3581, 3577, 3593, 3576, 0, 1, 17703, -89.900, 0.000, -69.900, 0.100, 0.000, -2.900, 0.0, , , , , , , 93, , , 39, 39, 39, ,0.0036100
 40.0403239, -105.5691655, 33.300, 15:08:45.338, 16, 0.10, 0.42, 97, -2.900, -2.700, -69.200, 733, --, 94, 18, 21502, -22375, 4976, 5130, 30, 14, 1570655325.338, 90, 94, 1024, 1024, 1024, 1024, 0, , 3543, 3624, 3581, 3577, 3593, 3576, 0, 1, 17803, -89.900, 0.000, -69.900, 0.100, 0.000, -2.900, 0.0, , , , , , , 93, , , 39, 39, 39, ,0.0036100
 40.0403240, -105.5691654, 33.600, 15:08:45.438, 16, 0.00, 0.42, 97, -2.700, -2.700, -69.100, 733, --, 94, 18, 21502, -22375, 4976, 5130, 30, 14, 1570655325.438, 89, 94, 1024, 1024, 1024, 1024, 0, , 3543, 3624, 3581, 3577, 3593, 3576, 0, 1, 17903, -89.900, 0.000, -70.000, 0.000, 0.000, -2.800, 0.0, , , , , , , 93, , , 39, 39, 39, ,0.0036100
 40.0403241, -105.5691653, 33.800, 15:08:45.539, 16, 0.00, 0.43, 97, -3.100, -2.900, -68.900, 733, --, 94, 18, 21502, -22375, 4976, 5130, 30, 14, 1570655325.539, 90, 94, 1024, 1024, 1024, 1024, 0, , 3543, 3624, 3581, 3577, 3593, 3576, 0, 1, 18003, -89.900, 0.000, -69.900, 0.000, 0.000, -2.800, 0.0, , , , , , , 93, , , 39, 39, 39, ,0.0036100
 40.0403241, -105.5691652, 34.100, 15:08:45.638, 16, 0.00, 0.43, 97, -3.200, -2.700, -68.700, 733, --, 94, 18, 21502, -22375, 4976, 5130, 30, 14, 1570655325.638, 88, 94, 1024, 1024, 1024, 1024, 0, , 3543, 3624, 3581, 3577, 3593, 3576, 0, 1, 18103, -89.900, 0.000, -69.900, 0.000, 0.000, -2.700, 0.0, , , , , , , 93, , , 39, 39, 39, ,0.0036100
 40.0403243, -105.5691652, 34.400, 15:08:45.738, 16, 0.10, 0.43, 97, -3.000, -2.400, -68.700, 733, --, 94, 18, 21502, -22375, 4976, 5130, 30, 14, 1570655325.738, 68, 94, 1024, 1024, 1024, 1024, 0, , 3543, 3624, 3581, 3577, 3593, 3576, 0, 1, 18203, -89.900, 0.000, -69.900, 0.100, 0.000, -2.700, 0.0, , , , , , , 93, , , 39, 39, 39, ,0.0036100
 40.0403244, -105.5691652, 34.700, 15:08:45.838, 16, 0.10, 0.43, 97, -2.800, -2.400, -68.900, 733, --, 94, 18, 21654, -20455, 4976, 5130, 30, 14, 1570655325.838, 56, 94, 1024, 1024, 1024, 1024, 0, , 3586, 3637, 3620, 3593, 3618, 3598, 0, 1, 18303, -89.900, 0.000, -70.000, 0.100, 0.000, -2.700, 0.0, , , , , , , 93, , , 39, 39, 39, ,0.0036100
 40.0403245, -105.5691652, 34.900, 15:08:45.938, 16, 0.00, 0.43, 97, -3.000, -1.900, -69.000, 733, --, 95, 18, 21654, -20455, 4976, 5130, 30, 14, 1570655325.938, 77, 95, 1024, 1024, 1024, 1024, 0, , 3586, 3637, 3620, 3593, 3618, 3598, 0, 1, 18403, -89.900, 0.000, -70.000, 0.000, 0.000, -2.800, 0.0, , , , , , , 93, , , 39, 39, 39, ,0.0036100
 40.0403246, -105.5691653, 35.200, 15:08:46.038, 16, 0.00, 0.42, 97, -2.800, -1.400, -69.000, 733, --, 95, 18, 21654, -20455, 4976, 5130, 30, 14, 1570655326.039, 63, 95, 1024, 1024, 1024, 1024, 0, , 3586, 3637, 3620, 3593, 3618, 3598, 0, 1, 18503, -89.900, 0.000, -69.900, 0.000, 0.000, -2.800, 0.0, , , , , , , 93, , , 39, 39, 39, ,0.0036100
 40.0403247, -105.5691654, 35.500, 15:08:46.138, 16, 0.00, 0.41, 97, -2.800, -1.100, -68.800, 733, --, 95, 18, 21654, -20455, 4976, 5130, 30, 14, 1570655326.139, 51, 95, 1024, 1024, 1024, 1024, 0, , 3586, 3637, 3620, 3593, 3618, 3598, 0, 1, 18603, -89.900, 0.000, -69.900, 0.000, 0.000, -2.800, 0.0, , , , , , , 93, , , 39, 39, 39, ,0.0036100
 40.0403248, -105.5691656, 36.000, 15:08:46.238, 16, 0.00, 0.39, 97, -2.400, 0.000, -68.300, 733, --, 95, 18, 21654, -20455, 4976, 5130, 30, 14, 1570655326.239, 64, 95, 1024, 1024, 1024, 1024, 0, , 3586, 3637, 3620, 3593, 3618, 3598, 0, 1, 18704, -89.900, 0.000, -69.900, 0.000, 0.000, -2.700, 0.0, , , , , , , 93, , , 39, 39, 39, ,0.0036100
 40.0403249, -105.5691657, 36.200, 15:08:46.338, 16, 0.00, 0.38, 97, -1.600, -0.100, -68.000, 733, --, 95, 18, 21654, -20455, 4976, 5130, 30, 14, 1570655326.339, 36, 95, 1024, 1024, 1024, 1024, 0, , 3586, 3637, 3620, 3593, 3618, 3598, 0, 1, 18803, -89.900, 0.000, -69.900, 0.000, 0.000, -2.700, 0.0, , , , , , , 93, , , 39, 39, 39, ,0.0036100
 40.0403249, -105.5691658, 36.500, 15:08:46.438, 16, 0.00, 0.37, 97, -1.500, -0.400, -67.900, 733, --, 97, 18, 21654, -20455, 4976, 5130, 30, 14, 1570655326.439, 38, 97, 1024, 1024, 1024, 1024, 0, , 3586, 3637, 3620, 3593, 3618, 3598, 0, 1, 18903, -89.900, 0.000, -69.900, 0.000, 0.000, -2.900, 0.0, , , , , , , 93, , , 39, 39, 39, ,0.0036100
 40.0403250, -105.5691659, 36.800, 15:08:46.538, 16, 0.00, 0.37, 97, -2.000, -0.800, -68.100, 733, --, 97, 18, 21654, -20455, 4976, 5130, 30, 14, 1570655326.539, 38, 97, 1024, 1024, 1024, 1024, 0, , 3586, 3637, 3620, 3593, 3618, 3598, 0, 1, 19003, -89.900, 0.000, -69.900, 0.000, 0.000, -3.000, 0.0, , , , , , , 93, , , 39, 39, 39, ,0.0036100
 40.0403251, -105.5691660, 37.100, 15:08:46.638, 16, 0.00, 0.36, 97, -2.300, -1.000, -68.600, 733, --, 97, 18, 21654, -20455, 4976, 5130, 30, 14, 1570655326.639, 39, 97, 1024, 1024, 1024, 1024, 0, , 3586, 3637, 3620, 3593, 3618, 3598, 0, 1, 19103, -89.900, 0.000, -70.000, 0.000, 0.000, -3.000, 0.0, , , , , , , 93, , , 39, 39, 39, ,0.0036100
 40.0403252, -105.5691661, 37.400, 15:08:46.738, 16, 0.00, 0.35, 97, -2.700, -0.700, -69.000, 733, --, 97, 18, 21654, -20455, 4976, 5130, 30, 14, 1570655326.738, 47, 97, 1024, 1024, 1024, 1024, 0, , 3586, 3637, 3620, 3593, 3618, 3598, 0, 1, 19203, -89.900, 0.000, -70.000, 0.000, 0.000, -3.100, 0.0, , , , , , , 93, , , 39, 39, 39, ,0.0036100
 40.0403253, -105.5691662, 37.600, 15:08:46.838, 16, 0.00, 0.34, 97, -3.000, -0.100, -69.400, 733, --, 98, 18, 21607, -20618, 4924, 5130, 30, 14, 1570655326.838, 37, 98, 1024, 1024, 1024, 1024, 0, , 3562, 3629, 3608, 3583, 3598, 3592, 0, 1, 19303, -89.900, 0.000, -70.000, 0.000, 0.000, -3.000, 0.0, , , , , , , 93, , , 39, 39, 39, ,0.0036100
 40.0403254, -105.5691663, 37.900, 15:08:46.938, 16, 0.00, 0.33, 97, -3.000, 0.400, -69.800, 733, --, 98, 18, 21607, -20618, 4924, 5130, 30, 14, 1570655326.938, 37, 98, 1024, 1024, 1024, 1024, 0, , 3562, 3629, 3608, 3583, 3598, 3592, 0, 1, 19403, -89.900, 0.000, -70.000, 0.000, 0.000, -3.000, 0.0, , , , , , , 93, , , 39, 39, 39, ,0.0036100
 40.0403255, -105.5691664, 38.200, 15:08:47.038, 16, 0.00, 0.33, 97, -2.900, 0.500, -69.800, 733, --, 98, 18, 21607, -20618, 4924, 5130, 30, 14, 1570655327.039, 37, 98, 1024, 1024, 1024, 1024, 0, , 3562, 3629, 3608, 3583, 3598, 3592, 0, 1, 19503, -89.900, 0.000, -69.900, 0.000, 0.000, -3.000, 0.0, , , , , , , 93, , , 39, 39, 39, ,0.0036100
 40.0403255, -105.5691665, 38.500, 15:08:47.138, 16, 0.00, 0.32, 97, -2.800, 0.000, -69.700, 733, --, 98, 18, 21607, -20618, 4924, 5130, 30, 14, 1570655327.139, 38, 98, 1024, 1024, 1024, 1024, 0, , 3562, 3629, 3608, 3583, 3598, 3592, 0, 1, 19603, -89.900, 0.000, -69.900, 0.000, 0.000, -3.200, 0.0, , , , , , , 93, , , 39, 39, 39, ,0.0036100
 40.0403255, -105.5691666, 38.900, 15:08:47.238, 16, 0.00, 0.31, 97, -2.000, -0.200, -69.600, 733, --, 98, 18, 21607, -20618, 4924, 5130, 30, 14, 1570655327.239, 28, 98, 1024, 1024, 1024, 1024, 0, , 3562, 3629, 3608, 3583, 3598, 3592, 0, 1, 19704, -89.900, 0.000, -70.000, 0.000, 0.000, -3.300, 0.0, , , , , , , 93, , , 39, 39, 39, ,0.0036100
 40.0403255, -105.5691666, 38.900, 15:08:47.338, 16, 0.00, 0.31, 97, -2.000, -0.200, -69.600, 733, --, 98, 18, 21607, -20618, 4924, 5130, 30, 14, 1570655327.339, 127, 98, 1024, 1024, 1024, 1024, 0, , 3562, 3629, 3608, 3583, 3598, 3592, 0, 1, 19803, -89.900, 0.000, -69.900, 0.000, 0.000, -3.300, 0.0, , , , , , , 93, , , 39, 39, 39, ,0.0036100
 40.0403255, -105.5691666, 38.900, 15:08:47.438, 16, 0.00, 0.31, 97, -2.000, -0.200, -69.600, 733, --, 98, 18, 21607, -20618, 4924, 5130, 30, 14, 1570655327.439, 227, 98, 1024, 1024, 1024, 1024, 0, , 3562, 3629, 3608, 3583, 3598, 3592, 0, 1, 19903, -89.900, 0.000, -69.900, 0.000, 0.000, -3.300, 0.0, , , , , , , 93, , , 39, 39, 39, ,0.0036100
 40.0403254, -105.5691667, 39.800, 15:08:47.538, 16, 0.00, 0.31, 97, -2.100, -0.600, -69.700, 733, --, 98, 18, 21607, -20618, 4924, 5130, 30, 14, 1570655327.538, 8, 98, 1024, 1024, 1024, 1024, 0, , 3562, 3629, 3608, 3583, 3598, 3592, 0, 1, 20003, -89.900, 0.000, -69.900, 0.000, 0.000, -3.200, 0.0, , , , , , , 93, , , 39, 39, 39, ,0.0036100
 40.0403253, -105.5691666, 40.200, 15:08:47.638, 16, 0.10, 0.31, 97, -1.800, -0.700, -69.500, 733, --, 98, 18, 21607, -20618, 4924, 5130, 30, 14, 1570655327.638, 3, 98, 1024, 1024, 1024, 1024, 0, , 3562, 3629, 3608, 3583, 3598, 3592, 0, 1, 20103, -89.900, 0.000, -70.000, -0.100, 0.000, -3.200, 0.0, , , , , , , 93, , , 39, 39, 39, ,0.0036100
 40.0403253, -105.5691666, 40.500, 15:08:47.738, 16, 0.10, 0.31, 96, -1.700, -1.200, -69.500, 733, --, 98, 18, 21275, -22655, 4924, 5130, 30, 14, 1570655327.739, 3, 98, 1024, 1024, 1024, 1024, 0, , 3502, 3566, 3541, 3514, 3544, 3539, 0, 1, 20203, -90.000, 0.000, -69.900, -0.100, 0.000, -3.100, 0.0, , , , , , , 93, , , 39, 39, 39, ,0.0036100
 40.0403253, -105.5691666, 40.500, 15:08:47.838, 16, 0.10, 0.31, 96, -1.700, -1.200, -69.500, 733, --, 98, 18, 21275, -22655, 4924, 5130, 30, 14, 1570655327.839, 103, 98, 1024, 1024, 1024, 1024, 0, , 3502, 3566, 3541, 3514, 3544, 3539, 0, 1, 20303, -90.000, 0.000, -69.900, -0.100, 0.000, -3.100, 0.0, , , , , , , 93, , , 39, 39, 39, ,0.0036100
 40.0403252, -105.5691665, 40.800, 15:08:47.938, 16, 0.10, 0.31, 96, -1.700, -1.900, -69.500, 733, --, 98, 18, 21275, -22655, 4924, 5130, 30, 14, 1570655327.938, 88, 98, 1024, 1024, 1024, 1024, 0, , 3502, 3566, 3541, 3514, 3544, 3539, 0, 1, 20403, -90.000, 0.000, -70.000, -0.100, 0.000, -3.000, 0.0, , , , , , , 93, , , 39, 39, 39, ,0.0036100
 40.0403251, -105.5691665, 41.100, 15:08:48.038, 16, 0.10, 0.31, 96, -1.600, -2.200, -69.700, 733, --, 98, 18, 21275, -22655, 4924, 5130, 30, 14, 1570655328.038, 96, 98, 1024, 1024, 1024, 1024, 0, , 3502, 3566, 3541, 3514, 3544, 3539, 0, 1, 20503, -90.000, 0.000, -70.000, -0.100, 0.000, -3.100, 0.0, , , , , , , 93, , , 39, 39, 39, ,0.0036100
 40.0403250, -105.5691665, 41.400, 15:08:48.138, 16, 0.10, 0.32, 96, -1.200, -2.500, -69.700, 733, --, 98, 18, 21275, -22655, 4924, 5130, 30, 14, 1570655328.139, 87, 98, 1024, 1024, 1024, 1024, 0, , 3502, 3566, 3541, 3514, 3544, 3539, 0, 1, 20603, -89.900, 0.000, -69.900, -0.100, 0.000, -3.100, 0.0, , , , , , , 93, , , 39, 39, 39, ,0.0036100
 40.0403249, -105.5691664, 41.700, 15:08:48.238, 16, 0.10, 0.32, 96, 0.000, -1.500, -69.800, 733, --, 98, 18, 21275, -22655, 4924, 5130, 30, 14, 1570655328.239, 93, 98, 1024, 1024, 1024, 1024, 0, , 3502, 3566, 3541, 3514, 3544, 3539, 0, 1, 20703, -89.900, 0.000, -70.000, -0.100, 0.000, -3.100, 0.0, , , , , , , 93, , , 39, 39, 39, ,0.0036100
 40.0403247, -105.5691664, 42.000, 15:08:48.338, 16, 0.10, 0.33, 96, 0.600, -0.800, -69.700, 733, --, 98, 18, 21275, -22655, 4924, 5130, 30, 14, 1570655328.339, 89, 98, 1024, 1024, 1024, 1024, 0, , 3502, 3566, 3541, 3514, 3544, 3539, 0, 1, 20803, -89.900, 0.000, -70.000, -0.100, 0.000, -3.000, 0.0, , , , , , , 93, , , 39, 39, 39, ,0.0036100
 40.0403246, -105.5691662, 42.400, 15:08:48.438, 16, 0.14, 0.34, 96, 0.900, -1.400, -69.500, 733, --, 98, 18, 21275, -22655, 4924, 5130, 30, 14, 1570655328.438, 88, 98, 1024, 1024, 1024, 1024, 0, , 3502, 3566, 3541, 3514, 3544, 3539, 0, 1, 20903, -90.000, 0.000, -69.900, -0.100, 0.100, -3.200, 0.1, , , , , , , 93, , , 39, 39, 39, ,0.0036100
 40.0403245, -105.5691660, 42.700, 15:08:48.538, 16, 0.22, 0.36, 96, 0.300, -3.000, -69.100, 733, --, 98, 18, 21275, -22655, 4924, 5130, 30, 14, 1570655328.539, 70, 98, 1024, 1024, 1024, 1024, 0, , 3502, 3566, 3541, 3514, 3544, 3539, 0, 1, 21003, -90.000, 0.000, -69.900, -0.100, 0.200, -3.200, 0.1, , , , , , , 93, , , 39, 39, 39, ,0.0036100
