Latitude, Longitude, Altitude (m), Time, Sats, Speed (m/s), Range (m), Battery (%), Roll (deg), Pitch (deg), Yaw (deg), Images, HD Signal (%), RC Signal (%), Battery Temp (C), Battery Voltage (mV), Battery Current (mA), Battery Energy (mAh), Battery Capacity (mAh), Battery Discharges, flyState, timestamp (Unix), LastUpdate (ms), radioChannel, Rc_elevator, Rc_aileron, Rc_throttle, Rc_rudder, Rc_gyro, Dronetype, Battery_Cell1 (mV), Battery_Cell2 (mV), Battery_Cell3 (mV), Battery_Cell4 (mV), Battery_Cell5 (mV), Battery_Cell6 (mV), Video, isFlying, elapsedTime (ms), gimbalPitch (deg), gimbalRoll (deg), gimbalYaw (deg), VelocityX (m/s), VelocityY (m/s), VelocityZ (m/s), GroundSmear (cm), App Version, Aircraft Name, Aircraft Firmware, Aircraft Serial Number, Battery Firmware, Battery Serial Number, Battery Lifetime (%), App_Tip, App_Warning, CurrentFlightStartingIndex, CurrentFlightLastVisitedWaypoint, PreviousFlightEndingWaypointIndex, DJIDiagnosticError, Focal Length (m)
 40.0403300, -105.5691805, 0.000, 14:31:14.085, 16, 0.14, 0.11, 98, 1.100, -0.100, 7.800, 2, --, 96, 19, 25129, -3174, 5101, 5206, 26, 11, 1570653074.086, 56, 96, 1024, 1024, 1024, 1024, 0, Matrice 100, 4170, 4173, 4225, 4258, 4206, 4208, 0, 1, 4004, -89.900, 0.000, 9.800, 0.100, 0.100, -0.200, 0.1, MapPilot_4.0.8_100120193, Dendroctonus I, N/A, 041DDC1887, 03.10.00.00, 1058171200140, 94, OBSDK - Set Image Spacing to 630 cm / OBSDK - Set Imaging State / OBSDK - Get Image Spacing / OBSDK - Get Imaging State / FlightID: AE3A4F43-D2F3-46AF-9A70-A6FA2FF5474F / MissionID: B8D63E49-B160-40A6-9F9E-1794A38F0C83 / Photo / DJI_0001.jpg, Imaging Interval: 2s - Adjusted Speed: 3.15 m/s / Starting Mission from Lat/Long: 40.04034/-105.56924 Camera: Zenmuse X3 - Overlap: 95/90 - Active Connection: No -  Terrain: SRTM, 0, 0, 0, No Image Transmission Signal / Aircraft GPS Error,0.0036100
 40.0403302, -105.5691802, 0.000, 14:31:14.185, 14, 0.22, 0.13, 98, 0.600, 0.700, 8.000, 2, --, 96, 19, 25129, -3174, 5101, 5206, 26, 11, 1570653074.185, 63, 96, 1024, 1024, 1024, 1024, 0, , 4170, 4173, 4225, 4258, 4206, 4208, 0, 1, 4104, -89.900, 0.000, 9.800, 0.100, 0.200, -0.300, 0.1, , , , , , , 94, , , 0, 0, 0, ,0.0036100
 40.0403304, -105.5691799, 0.000, 14:31:14.285, 14, 0.22, 0.15, 98, 0.400, 1.400, 8.200, 2, --, 96, 19, 25129, -3174, 5101, 5206, 26, 11, 1570653074.286, 64, 96, 1024, 1024, 1024, 1024, 0, , 4170, 4173, 4225, 4258, 4206, 4208, 0, 1, 4205, -89.900, 0.000, 9.700, 0.100, 0.200, -0.400, 0.1, , , , , , , 94, , , 0, 0, 0, ,0.0036100
 40.0403305, -105.5691796, 0.100, 14:31:14.385, 15, 0.22, 0.18, 98, 0.100, 1.600, 8.200, 2, --, 96, 19, 25129, -3174, 5101, 5206, 26, 11, 1570653074.385, 64, 96, 1024, 1024, 1024, 1024, 0, , 4170, 4173, 4225, 4258, 4206, 4208, 0, 1, 4304, -89.900, 0.000, 9.700, 0.100, 0.200, -0.300, 0.1, , , , , , , 94, , , 0, 0, 0, ,0.0036100
 40.0403306, -105.5691793, 0.100, 14:31:14.485, 15, 0.22, 0.20, 98, -0.600, 1.700, 8.200, 2, --, 96, 19, 24148, -10827, 5101, 5206, 26, 11, 1570653074.486, 56, 96, 1024, 1024, 1024, 1024, 0, , 4170, 4173, 4225, 4258, 4206, 4208, 0, 1, 4404, -89.900, 0.000, 9.600, 0.100, 0.200, -0.300, 0.1, , , , , , , 94, , , 0, 0, 0, ,0.0036100
 40.0403308, -105.5691791, 0.100, 14:31:14.585, 14, 0.20, 0.22, 98, -1.400, 1.800, 8.200, 2, --, 99, 19, 24148, -10827, 5101, 5206, 26, 11, 1570653074.585, 53, 99, 1024, 1024, 1024, 1024, 0, , 4170, 4173, 4225, 4258, 4206, 4208, 0, 1, 4504, -89.900, 0.000, 9.600, 0.000, 0.200, -0.300, 0.1, , , , , , , 94, , , 0, 0, 0, ,0.0036100
 40.0403309, -105.5691789, 0.200, 14:31:14.685, 14, 0.20, 0.24, 98, -2.000, 1.700, 8.200, 2, --, 99, 19, 24148, -10827, 5101, 5206, 26, 11, 1570653074.686, 56, 99, 1024, 1024, 1024, 1024, 0, , 4170, 4173, 4225, 4258, 4206, 4208, 0, 1, 4605, -89.900, 0.000, 9.600, 0.000, 0.200, -0.300, 0.1, , , , , , , 94, , , 0, 0, 0, ,0.0036100
 40.0403310, -105.5691787, 0.200, 14:31:14.785, 15, 0.10, 0.26, 98, -2.400, 1.100, 8.100, 2, --, 99, 19, 24148, -10827, 5101, 5206, 26, 11, 1570653074.785, 55, 99, 1024, 1024, 1024, 1024, 0, , 4170, 4173, 4225, 4258, 4206, 4208, 0, 1, 4704, -89.900, 0.000, 9.500, 0.000, 0.100, -0.400, 0.0, , , , , , , 94, , , 0, 0, 0, ,0.0036100
 40.0403310, -105.5691785, 0.300, 14:31:14.885, 15, 0.10, 0.28, 98, -2.400, 0.800, 7.900, 2, --, 99, 19, 24148, -10827, 5101, 5206, 26, 11, 1570653074.885, 56, 99, 1024, 1024, 1024, 1024, 0, , 4170, 4173, 4225, 4258, 4206, 4208, 0, 1, 4804, -89.900, 0.000, 9.500, 0.000, 0.100, -0.400, 0.0, , , , , , , 94, , , 0, 0, 0, ,0.0036100
 40.0403311, -105.5691784, 0.300, 14:31:14.985, 14, 0.10, 0.29, 98, -2.100, 0.700, 7.800, 2, --, 99, 19, 24148, -10827, 5101, 5206, 26, 11, 1570653074.985, 47, 99, 1024, 1024, 1024, 1024, 0, , 4170, 4173, 4225, 4258, 4206, 4208, 0, 1, 4904, -90.000, 0.000, 9.500, 0.000, 0.100, -0.400, 0.0, , , , , , , 94, , , 0, 0, 0, ,0.0036100
 40.0403312, -105.5691782, 0.300, 14:31:15.085, 14, 0.10, 0.31, 98, -1.600, 0.400, 7.700, 2, --, 100, 19, 24148, -10827, 5101, 5206, 26, 11, 1570653075.086, 45, 100, 1024, 1024, 1024, 1024, 0, , 4170, 4173, 4225, 4258, 4206, 4208, 0, 1, 5004, -89.900, 0.000, 9.400, 0.000, 0.100, -0.300, 0.0, , , , , , , 94, , , 0, 0, 0, ,0.0036100
 40.0403313, -105.5691781, 0.300, 14:31:15.185, 14, 0.00, 0.33, 98, -1.300, 0.500, 7.600, 2, --, 100, 19, 24148, -10827, 5101, 5206, 26, 11, 1570653075.185, 44, 100, 1024, 1024, 1024, 1024, 0, , 4170, 4173, 4225, 4258, 4206, 4208, 0, 1, 5104, -89.900, 0.000, 9.400, 0.000, 0.000, -0.300, 0.0, , , , , , , 94, , , 0, 0, 0, ,0.0036100
 40.0403314, -105.5691778, 0.400, 14:31:15.285, 14, 0.00, 0.34, 98, -1.100, 0.700, 7.500, 2, --, 100, 19, 24148, -10827, 5101, 5206, 26, 11, 1570653075.286, 22, 100, 1024, 1024, 1024, 1024, 0, , 4170, 4173, 4225, 4258, 4206, 4208, 0, 1, 5204, -89.900, 0.000, 9.400, 0.000, 0.000, -0.300, 0.0, , , , , , , 94, , , 0, 0, 0, ,0.0036100
 40.0403314, -105.5691776, 0.400, 14:31:15.385, 15, 0.00, 0.36, 98, -1.100, 0.800, 7.400, 2, --, 100, 19, 24148, -10827, 5101, 5206, 26, 11, 1570653075.385, 36, 100, 1024, 1024, 1024, 1024, 0, , 4170, 4173, 4225, 4258, 4206, 4208, 0, 1, 5304, -89.900, 0.000, 9.300, 0.000, 0.000, -0.400, 0.0, , , , , , , 94, , , 0, 0, 0, ,0.0036100
 40.0403315, -105.5691774, 0.500, 14:31:15.485, 15, 0.10, 0.38, 98, -1.200, 1.000, 7.400, 2, --, 100, 19, 23059, -19014, 5049, 5206, 26, 11, 1570653075.485, 26, 100, 1024, 1024, 1024, 1024, 0, , 3809, 3831, 3842, 3895, 3851, 3901, 0, 1, 5404, -89.900, 0.000, 9.300, 0.000, 0.100, -0.500, 0.0, , , , , , , 94, , , 0, 0, 0, No Image Transmission Signal / Aircraft GPS Error,0.0036100
 40.0403316, -105.5691771, 0.500, 14:31:15.585, 15, 0.10, 0.40, 98, -1.400, 1.200, 7.300, 2, --, 100, 19, 23059, -19014, 5049, 5206, 26, 11, 1570653075.585, 21, 100, 1024, 1024, 1024, 1024, 0, , 3809, 3831, 3842, 3895, 3851, 3901, 0, 1, 5504, -89.900, 0.000, 9.300, 0.000, 0.100, -0.600, 0.0, , , , , , , 94, , , 0, 0, 0, ,0.0036100
 40.0403317, -105.5691770, 0.600, 14:31:15.685, 15, 0.00, 0.41, 98, -1.700, 1.400, 7.300, 2, --, 100, 19, 23059, -19014, 5049, 5206, 26, 11, 1570653075.685, 9, 100, 1024, 1024, 1024, 1024, 0, , 3809, 3831, 3842, 3895, 3851, 3901, 0, 1, 5604, -89.900, 0.000, 9.300, 0.000, 0.000, -0.600, 0.0, , , , , , , 94, , , 0, 0, 0, ,0.0036100
 40.0403317, -105.5691769, 0.700, 14:31:15.785, 15, 0.00, 0.42, 98, -1.900, 1.500, 7.300, 2, --, 100, 19, 23059, -19014, 5049, 5206, 26, 11, 1570653075.785, 11, 100, 1024, 1024, 1024, 1024, 0, , 3809, 3831, 3842, 3895, 3851, 3901, 0, 1, 5704, -89.900, 0.000, 9.200, 0.000, 0.000, -0.500, 0.0, , , , , , , 94, , , 0, 0, 0, ,0.0036100
 40.0403318, -105.5691768, 0.700, 14:31:15.885, 15, 0.00, 0.44, 98, -2.000, 1.500, 7.400, 2, --, 100, 19, 23059, -19014, 5049, 5206, 26, 11, 1570653075.885, 9, 100, 1024, 1024, 1024, 1024, 0, , 3809, 3831, 3842, 3895, 3851, 3901, 0, 1, 5804, -89.900, 0.000, 9.200, 0.000, 0.000, -0.500, 0.0, , , , , , , 94, , , 0, 0, 0, ,0.0036100
 40.0403319, -105.5691766, 0.800, 14:31:15.985, 14, 0.00, 0.46, 97, -2.100, 1.600, 7.500, 2, --, 100, 19, 23059, -19014, 5049, 5206, 26, 11, 1570653075.985, 10, 100, 1024, 1024, 1024, 1024, 0, , 3809, 3831, 3842, 3895, 3851, 3901, 0, 1, 5904, -89.900, 0.000, 9.200, 0.000, 0.000, -0.500, 0.0, , , , , , , 94, , , 0, 0, 0, ,0.0036100
 40.0403320, -105.5691765, 0.800, 14:31:16.085, 14, 0.00, 0.47, 97, -2.100, 1.800, 7.800, 2, --, 100, 19, 23059, -19014, 5049, 5206, 26, 11, 1570653076.085, 11, 100, 1024, 1024, 1024, 1024, 0, , 3809, 3831, 3842, 3895, 3851, 3901, 0, 1, 6004, -89.900, 0.000, 9.200, 0.000, 0.000, -0.500, 0.0, , , , , , , 94, , , 0, 0, 0, ,0.0036100
 40.0403320, -105.5691764, 0.900, 14:31:16.185, 14, 0.00, 0.47, 97, -2.100, 1.900, 8.000, 2, --, 100, 19, 23059, -19014, 5049, 5206, 26, 6, 1570653076.185, 5, 100, 1024, 1024, 1024, 1024, 0, , 3809, 3831, 3842, 3895, 3851, 3901, 0, 1, 6104, -89.900, 0.000, 9.100, 0.000, 0.000, -0.500, 0.0, , , , , , , 94, , , 0, 0, 0, ,0.0036100
 40.0403320, -105.5691764, 0.900, 14:31:16.285, 14, 0.00, 0.48, 97, -2.100, 1.900, 8.100, 2, --, 100, 19, 23059, -19014, 5049, 5206, 26, 14, 1570653076.285, 6, 100, 1024, 1024, 1024, 1024, 0, , 3809, 3831, 3842, 3895, 3851, 3901, 0, 1, 6204, -89.900, 0.000, 9.100, 0.000, 0.000, -0.400, 0.0, , , , , , , 94, , , 0, 0, 0, ,0.0036100
 40.0403320, -105.5691764, 0.900, 14:31:16.385, 14, 0.00, 0.48, 97, -2.100, 1.900, 8.100, 2, --, 100, 19, 23059, -19014, 5049, 5206, 26, 14, 1570653076.385, 106, 100, 1024, 1024, 1024, 1024, 0, , 3809, 3831, 3842, 3895, 3851, 3901, 0, 1, 6304, -89.900, 0.000, 9.100, 0.000, 0.000, -0.400, 0.0, , , , , , , 94, , , 0, 0, 0, ,0.0036100
 40.0403320, -105.5691763, 1.000, 14:31:16.485, 13, 0.00, 0.48, 97, -1.400, 1.300, 8.300, 2, --, 100, 19, 23059, -19014, 5049, 5206, 26, 14, 1570653076.485, 79, 100, 1024, 1024, 1024, 1024, 0, , 3809, 3831, 3842, 3895, 3851, 3901, 0, 1, 6404, -89.900, 0.000, 9.100, 0.000, 0.000, -0.300, 0.0, , , , , , , 94, , , 0, 0, 0, ,0.0036100
 40.0403321, -105.5691763, 1.000, 14:31:16.585, 13, 0.00, 0.49, 97, -0.700, 0.800, 8.500, 2, --, 100, 19, 22969, -19588, 5049, 5206, 26, 14, 1570653076.585, 82, 100, 1024, 1024, 1024, 1024, 0, , 3804, 3832, 3823, 3855, 3817, 3831, 0, 1, 6504, -90.000, 0.000, 9.100, 0.000, 0.000, -0.200, 0.0, , , , , , , 94, , , 0, 0, 0, ,0.0036100
 40.0403321, -105.5691763, 1.000, 14:31:16.685, 15, 0.00, 0.49, 97, -0.400, 0.600, 8.600, 2, --, 100, 19, 22969, -19588, 5049, 5206, 26, 14, 1570653076.685, 83, 100, 1024, 1024, 1024, 1024, 0, , 3804, 3832, 3823, 3855, 3817, 3831, 0, 1, 6604, -89.900, 0.000, 9.100, 0.000, 0.000, -0.300, 0.0, , , , , , , 94, , , 0, 0, 0, ,0.0036100
 40.0403321, -105.5691762, 1.100, 14:31:16.785, 15, 0.00, 0.50, 97, -0.400, 0.700, 8.600, 2, --, 100, 19, 22969, -19588, 5049, 5206, 26, 14, 1570653076.785, 82, 100, 1024, 1024, 1024, 1024, 0, , 3804, 3832, 3823, 3855, 3817, 3831, 0, 1, 6704, -89.900, 0.000, 9.100, 0.000, 0.000, -0.300, 0.0, , , , , , , 94, , , 0, 0, 0, ,0.0036100
 40.0403322, -105.5691760, 1.200, 14:31:16.885, 15, 0.00, 0.51, 97, -1.200, 0.900, 8.700, 2, --, 100, 19, 22969, -19588, 5049, 5206, 26, 14, 1570653076.885, 64, 100, 1024, 1024, 1024, 1024, 0, , 3804, 3832, 3823, 3855, 3817, 3831, 0, 1, 6804, -89.900, 0.000, 9.100, 0.000, 0.000, -0.600, 0.0, , , , , , , 94, , , 0, 0, 0, ,0.0036100
 40.0403322, -105.5691760, 1.300, 14:31:16.985, 15, 0.00, 0.52, 97, -1.400, 1.000, 8.700, 2, --, 100, 19, 22969, -19588, 5049, 5206, 26, 14, 1570653076.985, 67, 100, 1024, 1024, 1024, 1024, 0, , 3804, 3832, 3823, 3855, 3817, 3831, 0, 1, 6904, -89.900, 0.000, 9.100, 0.000, 0.000, -0.800, 0.0, , , , , , , 94, , , 0, 0, 0, ,0.0036100
 40.0403322, -105.5691759, 1.400, 14:31:17.085, 15, 0.00, 0.53, 97, -1.500, 1.000, 8.600, 2, --, 100, 19, 22969, -19588, 5049, 5206, 26, 14, 1570653077.085, 70, 100, 1024, 1024, 1024, 1024, 0, , 3804, 3832, 3823, 3855, 3817, 3831, 0, 1, 7004, -89.900, 0.000, 9.100, 0.000, 0.000, -1.000, 0.0, , , , , , , 94, , , 0, 0, 0, ,0.0036100
 40.0403323, -105.5691758, 1.500, 14:31:17.185, 15, 0.00, 0.53, 97, -1.500, 1.100, 8.500, 2, --, 100, 19, 22969, -19588, 5049, 5206, 26, 14, 1570653077.185, 77, 100, 1024, 1024, 1024, 1024, 0, , 3804, 3832, 3823, 3855, 3817, 3831, 0, 1, 7104, -89.900, 0.000, 9.100, 0.000, 0.000, -1.000, 0.0, , , , , , , 94, , , 0, 0, 0, ,0.0036100
 40.0403323, -105.5691758, 1.500, 14:31:17.285, 15, 0.00, 0.53, 97, -1.500, 1.100, 8.500, 2, --, 100, 19, 22969, -19588, 5049, 5206, 26, 14, 1570653077.285, 177, 100, 1024, 1024, 1024, 1024, 0, , 3804, 3832, 3823, 3855, 3817, 3831, 0, 1, 7204, -89.900, 0.000, 9.100, 0.000, 0.000, -1.000, 0.0, , , , , , , 94, , , 0, 0, 0, ,0.0036100
 40.0403323, -105.5691758, 1.700, 14:31:17.385, 15, 0.00, 0.53, 97, -1.400, 1.200, 8.200, 2, --, 100, 19, 22969, -19588, 5049, 5206, 26, 14, 1570653077.385, 53, 100, 1024, 1024, 1024, 1024, 0, , 3804, 3832, 3823, 3855, 3817, 3831, 0, 1, 7304, -89.900, 0.000, 9.100, 0.000, 0.000, -1.500, 0.0, , , , , , , 94, , , 0, 0, 0, ,0.0036100
 40.0403324, -105.5691760, 1.900, 14:31:17.485, 15, 0.00, 0.53, 97, -1.100, 1.200, 8.000, 2, --, 100, 19, 22969, -19588, 5049, 5206, 26, 14, 1570653077.485, 76, 100, 1024, 1024, 1024, 1024, 0, , 3804, 3832, 3823, 3855, 3817, 3831, 0, 1, 7404, -89.900, 0.000, 9.100, 0.000, 0.000, -1.700, 0.0, , , , , , , 94, , , 0, 0, 0, ,0.0036100
 40.0403325, -105.5691761, 2.100, 14:31:17.585, 14, 0.00, 0.53, 97, -0.500, 1.200, 7.900, 2, --, 100, 19, 22701, -18307, 5049, 5206, 26, 14, 1570653077.585, 66, 100, 1024, 1024, 1024, 1024, 0, , 3766, 3781, 3773, 3831, 3726, 3755, 0, 1, 7504, -89.900, 0.000, 9.100, 0.000, 0.000, -2.000, 0.0, , , , , , , 94, , , 0, 0, 0, ,0.0036100
 40.0403325, -105.5691761, 2.300, 14:31:17.685, 14, 0.00, 0.53, 97, 0.000, 1.400, 7.900, 2, --, 100, 19, 22701, -18307, 5049, 5206, 26, 14, 1570653077.685, 55, 100, 1024, 1024, 1024, 1024, 0, , 3766, 3781, 3773, 3831, 3726, 3755, 0, 1, 7604, -89.900, 0.000, 9.100, 0.000, 0.000, -2.200, 0.0, , , , , , , 94, , , 0, 0, 0, ,0.0036100
 40.0403324, -105.5691761, 2.500, 14:31:17.785, 14, 0.00, 0.53, 97, 0.600, 1.400, 7.900, 2, --, 100, 19, 22701, -18307, 5049, 5206, 26, 14, 1570653077.785, 55, 100, 1024, 1024, 1024, 1024, 0, , 3766, 3781, 3773, 3831, 3726, 3755, 0, 1, 7704, -89.900, 0.000, 9.100, 0.000, 0.000, -2.500, 0.0, , , , , , , 94, , , 0, 0, 0, ,0.0036100
 40.0403325, -105.5691761, 2.800, 14:31:17.885, 14, 0.00, 0.53, 97, 0.500, 1.600, 7.900, 2, --, 100, 19, 22701, -18307, 5049, 5206, 26, 14, 1570653077.885, 42, 100, 1024, 1024, 1024, 1024, 0, , 3766, 3781, 3773, 3831, 3726, 3755, 0, 1, 7804, -89.900, 0.000, 9.100, 0.000, 0.000, -2.800, 0.0, , , , , , , 94, , , 0, 0, 0, ,0.0036100
 40.0403325, -105.5691760, 3.200, 14:31:17.985, 14, 0.00, 0.54, 97, 0.000, 1.300, 7.900, 2, --, 100, 19, 22701, -18307, 5049, 5206, 26, 14, 1570653077.986, 41, 100, 1024, 1024, 1024, 1024, 0, , 3766, 3781, 3773, 3831, 3726, 3755, 0, 1, 7904, -89.900, 0.000, 9.100, 0.000, 0.000, -3.000, 0.0, , , , , , , 94, , , 0, 0, 0, ,0.0036100
 40.0403326, -105.5691759, 3.600, 14:31:18.085, 14, 0.10, 0.55, 97, -1.400, 1.400, 7.800, 2, --, 100, 19, 22701, -18307, 5049, 5206, 26, 14, 1570653078.085, 38, 100, 1024, 1024, 1024, 1024, 0, , 3766, 3781, 3773, 3831, 3726, 3755, 0, 1, 8004, -89.900, 0.000, 9.100, 0.000, 0.100, -3.300, 0.0, , , , , , , 94, , , 0, 0, 0, ,0.0036100
 40.0403327, -105.5691757, 4.000, 14:31:18.185, 14, 0.10, 0.57, 97, -2.800, 1.800, 7.700, 2, --, 100, 19, 22701, -18307, 5049, 5206, 26, 14, 1570653078.186, 45, 100, 1024, 1024, 1024, 1024, 0, , 3766, 3781, 3773, 3831, 3726, 3755, 0, 1, 8104, -89.900, 0.000, 9.100, 0.000, 0.100, -3.400, 0.0, , , , , , , 94, , , 0, 0, 0, ,0.0036100
 40.0403326, -105.5691754, 4.300, 14:31:18.285, 14, 0.10, 0.58, 97, -3.800, 2.100, 7.800, 2, --, 100, 19, 22701, -18307, 5049, 5206, 26, 14, 1570653078.285, 36, 100, 1024, 1024, 1024, 1024, 0, , 3766, 3781, 3773, 3831, 3726, 3755, 0, 1, 8204, -89.900, 0.000, 9.100, 0.000, 0.100, -3.300, 0.0, , , , , , , 94, , , 0, 0, 0, ,0.0036100
 40.0403325, -105.5691752, 4.700, 14:31:18.385, 14, 0.10, 0.59, 97, -4.200, 1.300, 8.100, 2, --, 100, 19, 22701, -18307, 5049, 5206, 26, 14, 1570653078.385, 32, 100, 1024, 1024, 1024, 1024, 0, , 3766, 3781, 3773, 3831, 3726, 3755, 0, 1, 8304, -90.000, 0.000, 9.100, 0.000, 0.100, -3.300, 0.0, , , , , , , 94, , , 0, 0, 0, ,0.0036100
 40.0403324, -105.5691750, 5.100, 14:31:18.485, 14, 0.10, 0.60, 97, -4.300, 0.500, 8.200, 2, --, 100, 19, 21921, -28049, 5049, 5206, 26, 14, 1570653078.485, 36, 100, 1024, 1024, 1024, 1024, 0, , 3766, 3781, 3773, 3831, 3726, 3755, 0, 1, 8404, -89.900, 0.000, 9.100, 0.000, 0.100, -3.100, 0.0, , , , , , , 94, , , 0, 0, 0, ,0.0036100
 40.0403324, -105.5691748, 5.400, 14:31:18.585, 15, 0.10, 0.61, 97, -4.300, 1.000, 8.200, 2, --, 100, 19, 21921, -28049, 5049, 5206, 26, 14, 1570653078.585, 35, 100, 1024, 1024, 1024, 1024, 0, , 3766, 3781, 3773, 3831, 3726, 3755, 0, 1, 8504, -89.900, 0.000, 9.100, 0.000, 0.100, -3.100, 0.0, , , , , , , 94, , , 0, 0, 0, ,0.0036100
 40.0403323, -105.5691746, 5.700, 14:31:18.685, 15, 0.00, 0.61, 97, -3.700, 1.000, 8.100, 2, --, 100, 19, 21921, -28049, 5049, 5206, 26, 14, 1570653078.685, 10, 100, 1024, 1024, 1024, 1024, 0, , 3766, 3781, 3773, 3831, 3726, 3755, 0, 1, 8604, -89.900, 0.000, 9.100, 0.000, 0.000, -2.900, 0.0, , , , , , , 94, , , 0, 0, 0, ,0.0036100
 40.0403322, -105.5691744, 6.000, 14:31:18.785, 15, 0.00, 0.62, 97, -3.400, 0.600, 8.100, 2, --, 100, 19, 21921, -28049, 5049, 5206, 26, 14, 1570653078.785, 25, 100, 1024, 1024, 1024, 1024, 0, , 3766, 3781, 3773, 3831, 3726, 3755, 0, 1, 8704, -90.000, 0.000, 9.100, 0.000, 0.000, -2.900, 0.0, , , , , , , 94, , , 0, 0, 0, ,0.0036100
 40.0403321, -105.5691744, 6.400, 14:31:18.885, 15, 0.00, 0.62, 97, -3.500, 0.500, 8.100, 2, --, 100, 19, 21921, -28049, 5049, 5206, 26, 14, 1570653078.885, 26, 100, 1024, 1024, 1024, 1024, 0, , 3766, 3781, 3773, 3831, 3726, 3755, 0, 1, 8804, -89.900, 0.000, 9.100, 0.000, 0.000, -3.000, 0.0, , , , , , , 94, , , 0, 0, 0, ,0.0036100
 40.0403320, -105.5691744, 6.700, 14:31:18.985, 15, 0.00, 0.61, 97, -3.500, 0.400, 8.200, 2, --, 100, 19, 21921, -28049, 5049, 5206, 26, 14, 1570653078.985, 26, 100, 1024, 1024, 1024, 1024, 0, , 3630, 3642, 3656, 3708, 3617, 3668, 0, 1, 8904, -89.900, 0.000, 9.100, 0.000, 0.000, -3.000, 0.0, , , , , , , 94, , , 0, 0, 0, ,0.0036100
 40.0403320, -105.5691744, 6.700, 14:31:19.085, 15, 0.00, 0.61, 97, -3.500, 0.400, 8.200, 2, --, 100, 19, 21921, -28049, 5049, 5206, 26, 14, 1570653079.085, 126, 100, 1024, 1024, 1024, 1024, 0, , 3630, 3642, 3656, 3708, 3617, 3668, 0, 1, 9004, -89.900, 0.000, 9.100, 0.000, 0.000, -3.000, 0.0, , , , , , , 94, , , 0, 0, 0, ,0.0036100
 40.0403320, -105.5691743, 7.000, 14:31:19.185, 15, 0.00, 0.61, 97, -3.200, 0.600, 8.300, 2, --, 100, 19, 21921, -28049, 5049, 5206, 26, 14, 1570653079.185, 98, 100, 1024, 1024, 1024, 1024, 0, , 3630, 3642, 3656, 3708, 3617, 3668, 0, 1, 9104, -89.900, 0.000, 9.100, 0.000, 0.000, -3.000, 0.0, , , , , , , 94, , , 0, 0, 0, Aircraft GPS Error,0.0036100
 40.0403319, -105.5691743, 7.600, 14:31:19.285, 16, 0.00, 0.61, 97, -3.200, 0.900, 8.700, 2, --, 100, 19, 21921, -28049, 5049, 5206, 26, 14, 1570653079.285, 12, 100, 1024, 1024, 1024, 1024, 0, , 3630, 3642, 3656, 3708, 3617, 3668, 0, 1, 9204, -89.900, 0.000, 9.100, 0.000, 0.000, -3.100, 0.0, , , , , , , 94, , , 0, 0, 0, ,0.0036100
 40.0403319, -105.5691743, 7.600, 14:31:19.385, 16, 0.00, 0.61, 97, -3.200, 0.900, 8.700, 2, --, 100, 19, 21921, -28049, 5049, 5206, 26, 14, 1570653079.385, 112, 100, 1024, 1024, 1024, 1024, 0, , 3630, 3642, 3656, 3708, 3617, 3668, 0, 1, 9304, -89.900, 0.000, 9.100, 0.000, 0.000, -3.100, 0.0, , , , , , , 94, , , 0, 0, 0, ,0.0036100
 40.0403318, -105.5691744, 8.400, 14:31:19.485, 16, 0.00, 0.60, 97, -3.600, 1.000, 8.800, 2, --, 100, 19, 22117, -28049, 5049, 5206, 26, 14, 1570653079.485, 5, 100, 1024, 1024, 1024, 1024, 0, , 3630, 3642, 3656, 3708, 3617, 3668, 0, 1, 9404, -89.900, 0.000, 9.100, 0.000, 0.000, -3.300, 0.0, , , , , , , 94, , , 0, 0, 0, ,0.0036100
 40.0403318, -105.5691744, 8.400, 14:31:19.585, 16, 0.00, 0.60, 97, -3.600, 1.000, 8.800, 2, --, 100, 19, 22117, -28049, 5049, 5206, 26, 14, 1570653079.585, 105, 100, 1024, 1024, 1024, 1024, 0, , 3630, 3642, 3656, 3708, 3617, 3668, 0, 1, 9504, -89.900, 0.000, 9.100, 0.000, 0.000, -3.300, 0.0, , , , , , , 94, , , 0, 0, 0, ,0.0036100
 40.0403318, -105.5691745, 8.700, 14:31:19.685, 16, 0.00, 0.59, 97, -3.300, 1.400, 9.000, 2, --, 100, 19, 22117, -28049, 5049, 5206, 26, 14, 1570653079.685, 93, 100, 1024, 1024, 1024, 1024, 0, , 3630, 3642, 3656, 3708, 3617, 3668, 0, 1, 9604, -89.900, 0.000, 9.200, 0.000, 0.000, -3.200, 0.0, , , , , , , 94, , , 0, 0, 0, ,0.0036100
 40.0403317, -105.5691745, 9.100, 14:31:19.785, 16, 0.00, 0.59, 97, -2.600, 1.400, 9.300, 2, --, 100, 19, 22117, -28049, 5049, 5206, 26, 14, 1570653079.785, 92, 100, 1024, 1024, 1024, 1024, 0, , 3630, 3642, 3656, 3708, 3617, 3668, 0, 1, 9704, -89.900, 0.000, 9.100, 0.000, 0.000, -3.100, 0.0, , , , , , , 94, , , 0, 0, 0, ,0.0036100
 40.0403316, -105.5691746, 9.400, 14:31:19.885, 16, 0.00, 0.58, 97, -2.300, 1.100, 9.500, 2, --, 100, 19, 22117, -28049, 5049, 5206, 26, 14, 1570653079.885, 91, 100, 1024, 1024, 1024, 1024, 0, , 3630, 3642, 3656, 3708, 3617, 3668, 0, 1, 9804, -90.000, 0.000, 9.100, 0.000, 0.000, -3.100, 0.0, , , , , , , 94, , , 0, 0, 0, ,0.0036100
 40.0403315, -105.5691746, 9.700, 14:31:19.985, 16, 0.00, 0.57, 97, -2.200, 0.100, 9.500, 2, --, 100, 19, 22117, -28049, 5049, 5206, 26, 14, 1570653079.985, 90, 100, 1024, 1024, 1024, 1024, 0, , 3630, 3642, 3656, 3708, 3617, 3668, 0, 1, 9904, -90.000, 0.000, 9.100, 0.000, 0.000, -3.000, 0.0, , , , , , , 94, , , 0, 0, 0, ,0.0036100
 40.0403314, -105.5691746, 10.000, 14:31:20.085, 16, 0.00, 0.57, 97, -2.400, -1.000, 9.300, 2, --, 100, 19, 22117, -23983, 5049, 5206, 26, 14, 1570653080.085, 83, 100, 1024, 1024, 1024, 1024, 0, , 3661, 3683, 3689, 3718, 3671, 3686, 0, 1, 10004, -89.900, 0.000, 9.100, 0.000, 0.000, -3.000, 0.0, , , , , , , 94, , , 0, 0, 0, ,0.0036100
 40.0403313, -105.5691746, 10.300, 14:31:20.185, 16, 0.00, 0.56, 97, -2.600, -1.800, 9.100, 2, --, 100, 19, 22117, -23983, 5049, 5206, 26, 14, 1570653080.185, 81, 100, 1024, 1024, 1024, 1024, 0, , 3661, 3683, 3689, 3718, 3671, 3686, 0, 1, 10104, -89.900, 0.000, 9.100, 0.000, 0.000, -3.000, 0.0, , , , , , , 94, , , 0, 0, 0, ,0.0036100
 40.0403312, -105.5691747, 10.600, 14:31:20.285, 16, 0.00, 0.55, 97, -2.000, -2.200, 9.100, 2, --, 100, 19, 22117, -23983, 5049, 5206, 26, 14, 1570653080.285, 61, 100, 1024, 1024, 1024, 1024, 0, , 3661, 3683, 3689, 3718, 3671, 3686, 0, 1, 10204, -89.900, 0.000, 9.100, 0.000, 0.000, -3.000, 0.0, , , , , , , 94, , , 0, 0, 0, ,0.0036100
 40.0403312, -105.5691747, 11.000, 14:31:20.385, 16, 0.00, 0.55, 97, -2.200, -2.500, 9.200, 2, --, 100, 19, 22117, -23983, 5049, 5206, 26, 14, 1570653080.385, 85, 100, 1024, 1024, 1024, 1024, 0, , 3661, 3683, 3689, 3718, 3671, 3686, 0, 1, 10304, -89.900, 0.000, 9.100, 0.000, 0.000, -3.000, 0.0, , , , , , , 94, , , 0, 0, 0, ,0.0036100
 40.0403311, -105.5691746, 11.600, 14:31:20.485, 16, 0.00, 0.55, 97, -3.200, -0.300, 9.200, 2, --, 100, 19, 22117, -23983, 5049, 5206, 26, 14, 1570653080.485, 83, 100, 1024, 1024, 1024, 1024, 0, , 3661, 3683, 3689, 3718, 3671, 3686, 0, 1, 10404, -89.900, 0.000, 9.100, 0.000, 0.000, -3.000, 0.0, , , , , , , 94, , , 0, 0, 0, ,0.0036100
 40.0403311, -105.5691746, 11.600, 14:31:20.585, 16, 0.00, 0.55, 97, -3.200, -0.300, 9.200, 2, --, 96, 19, 22117, -23983, 5049, 5206, 26, 14, 1570653080.585, 184, 96, 1024, 1024, 1024, 1024, 0, , 3661, 3683, 3689, 3718, 3671, 3686, 0, 1, 10504, -89.900, 0.000, 9.100, 0.000, 0.000, -3.000, 0.0, , , , , , , 94, , , 0, 0, 0, ,0.0036100
 40.0403311, -105.5691745, 12.200, 14:31:20.685, 16, 0.00, 0.56, 97, -4.500, 0.000, 9.400, 2, --, 96, 19, 22117, -23983, 5049, 5206, 26, 14, 1570653080.685, 74, 96, 1024, 1024, 1024, 1024, 0, , 3661, 3683, 3689, 3718, 3671, 3686, 0, 1, 10604, -89.900, 0.000, 9.100, 0.000, 0.000, -2.900, 0.0, , , , , , , 94, , , 0, 0, 0, ,0.0036100
 40.0403311, -105.5691745, 12.200, 14:31:20.785, 16, 0.00, 0.56, 97, -4.500, 0.000, 9.400, 2, --, 96, 19, 22117, -23983, 5049, 5206, 26, 14, 1570653080.785, 174, 96, 1024, 1024, 1024, 1024, 0, , 3661, 3683, 3689, 3718, 3671, 3686, 0, 1, 10704, -89.900, 0.000, 9.100, 0.000, 0.000, -2.900, 0.0, , , , , , , 94, , , 0, 0, 0, ,0.0036100
 40.0403311, -105.5691744, 12.800, 14:31:20.885, 16, 0.00, 0.57, 97, -4.100, -0.200, 9.100, 2, --, 96, 19, 22117, -23983, 5049, 5206, 26, 14, 1570653080.885, 52, 96, 1024, 1024, 1024, 1024, 0, , 3661, 3683, 3689, 3718, 3671, 3686, 0, 1, 10804, -89.900, 0.000, 9.100, 0.000, 0.000, -2.700, 0.0, , , , , , , 94, , , 0, 0, 0, ,0.0036100
 40.0403312, -105.5691744, 13.100, 14:31:20.985, 16, 0.00, 0.57, 97, -3.400, 0.200, 8.700, 2, --, 96, 19, 22117, -23983, 5049, 5206, 26, 14, 1570653080.985, 60, 96, 1024, 1024, 1024, 1024, 0, , 3661, 3683, 3689, 3718, 3671, 3686, 0, 1, 10904, -89.900, 0.000, 9.100, 0.000, 0.000, -2.500, 0.0, , , , , , , 94, , , 0, 0, 0, ,0.0036100
 40.0403312, -105.5691744, 13.300, 14:31:21.085, 16, 0.00, 0.57, 97, -3.300, 0.300, 8.200, 2, --, 93, 19, 22351, -21982, 5049, 5206, 26, 14, 1570653081.085, 65, 93, 1024, 1024, 1024, 1024, 0, , 3687, 3730, 3725, 3772, 3720, 3732, 0, 1, 11004, -89.900, 0.000, 9.100, 0.000, 0.000, -2.500, 0.0, , , , , , , 94, , , 0, 0, 0, ,0.0036100
 40.0403312, -105.5691744, 13.500, 14:31:21.185, 16, 0.00, 0.57, 97, -3.000, 0.000, 7.800, 2, --, 93, 19, 22351, -21982, 5049, 5206, 26, 14, 1570653081.185, 52, 93, 1024, 1024, 1024, 1024, 0, , 3687, 3730, 3725, 3772, 3720, 3732, 0, 1, 11104, -89.900, 0.000, 9.100, 0.000, 0.000, -2.500, 0.0, , , , , , , 94, , , 0, 0, 0, ,0.0036100
 40.0403312, -105.5691744, 13.800, 14:31:21.285, 16, 0.00, 0.57, 97, -2.900, 0.100, 7.700, 2, --, 93, 19, 22351, -21982, 5049, 5206, 26, 14, 1570653081.285, 53, 93, 1024, 1024, 1024, 1024, 0, , 3687, 3730, 3725, 3772, 3720, 3732, 0, 1, 11204, -89.900, 0.000, 9.100, 0.000, 0.000, -2.600, 0.0, , , , , , , 94, , , 0, 0, 0, ,0.0036100
 40.0403312, -105.5691744, 14.000, 14:31:21.384, 16, 0.00, 0.57, 97, -2.800, -0.200, 7.600, 2, --, 93, 19, 22351, -21982, 5049, 5206, 26, 14, 1570653081.385, 55, 93, 1024, 1024, 1024, 1024, 0, , 3687, 3730, 3725, 3772, 3720, 3732, 0, 1, 11303, -89.900, 0.000, 9.100, 0.000, 0.000, -2.800, 0.0, , , , , , , 94, , , 0, 0, 0, ,0.0036100
 40.0403312, -105.5691745, 14.300, 14:31:21.485, 16, 0.00, 0.56, 97, -3.200, -0.600, 7.700, 2, --, 93, 19, 22351, -21982, 5049, 5206, 26, 14, 1570653081.485, 42, 93, 1024, 1024, 1024, 1024, 0, , 3687, 3730, 3725, 3772, 3720, 3732, 0, 1, 11404, -89.900, 0.000, 9.100, 0.000, 0.000, -2.900, 0.0, , , , , , , 94, , , 0, 0, 0, ,0.0036100
 40.0403312, -105.5691745, 14.600, 14:31:21.585, 16, 0.00, 0.56, 97, -3.400, -0.800, 7.700, 2, --, 93, 19, 22351, -21982, 5049, 5206, 26, 14, 1570653081.585, 21, 93, 1024, 1024, 1024, 1024, 0, , 3687, 3730, 3725, 3772, 3720, 3732, 0, 1, 11504, -89.900, 0.000, 9.100, 0.000, 0.000, -3.000, 0.0, , , , , , , 94, , , 0, 0, 0, ,0.0036100
 40.0403313, -105.5691746, 14.900, 14:31:21.685, 16, 0.00, 0.56, 97, -3.200, -0.900, 7.800, 2, --, 93, 19, 22351, -21982, 5049, 5206, 26, 14, 1570653081.685, 31, 93, 1024, 1024, 1024, 1024, 0, , 3687, 3730, 3725, 3772, 3720, 3732, 0, 1, 11604, -89.900, 0.000, 9.100, 0.000, 0.000, -3.000, 0.0, , , , , , , 94, , , 0, 0, 0, ,0.0036100
 40.0403313, -105.5691747, 15.200, 14:31:21.785, 16, 0.00, 0.56, 97, -3.600, -0.800, 7.800, 2, --, 93, 19, 22351, -21982, 5049, 5206, 26, 14, 1570653081.785, 25, 93, 1024, 1024, 1024, 1024, 0, , 3687, 3730, 3725, 3772, 3720, 3732, 0, 1, 11704, -89.900, 0.000, 9.100, 0.000, 0.000, -3.100, 0.0, , , , , , , 94, , , 0, 0, 0, ,0.0036100
 40.0403314, -105.5691748, 15.500, 14:31:21.885, 16, 0.00, 0.55, 97, -3.100, -0.400, 7.800, 2, --, 93, 19, 22351, -21982, 5049, 5206, 26, 14, 1570653081.885, 25, 93, 1024, 1024, 1024, 1024, 0, , 3687, 3730, 3725, 3772, 3720, 3732, 0, 1, 11804, -89.900, 0.000, 9.100, 0.000, 0.000, -3.000, 0.0, , , , , , , 94, , , 0, 0, 0, ,0.0036100
 40.0403315, -105.5691749, 15.800, 14:31:21.985, 16, 0.00, 0.55, 97, -2.600, 0.000, 7.800, 2, --, 93, 19, 22422, -21036, 5049, 5206, 26, 14, 1570653081.985, 22, 93, 1024, 1024, 1024, 1024, 0, , 3687, 3730, 3725, 3772, 3720, 3732, 0, 1, 11904, -89.900, 0.000, 9.100, 0.000, 0.000, -2.900, 0.0, , , , , , , 94, , , 0, 0, 0, ,0.0036100
 40.0403316, -105.5691750, 16.100, 14:31:22.085, 16, 0.10, 0.55, 97, -2.100, 0.500, 7.700, 2, --, 98, 19, 22422, -21036, 5049, 5206, 26, 14, 1570653082.085, 25, 98, 1024, 1024, 1024, 1024, 0, , 3707, 3725, 3724, 3771, 3708, 3709, 0, 1, 12004, -89.900, 0.000, 9.100, 0.100, 0.000, -2.900, 0.0, , , , , , , 94, , , 0, 0, 0, ,0.0036100
 40.0403317, -105.5691751, 16.400, 14:31:22.185, 16, 0.10, 0.54, 97, -1.600, 0.900, 7.600, 2, --, 98, 19, 22422, -21036, 5049, 5206, 26, 14, 1570653082.185, 26, 98, 1024, 1024, 1024, 1024, 0, , 3707, 3725, 3724, 3771, 3708, 3709, 0, 1, 12104, -89.900, 0.000, 9.100, 0.100, 0.000, -2.900, 0.0, , , , , , , 94, , , 0, 0, 0, ,0.0036100
 40.0403317, -105.5691751, 16.400, 14:31:22.285, 16, 0.10, 0.54, 97, -1.600, 0.900, 7.600, 2, --, 98, 19, 22422, -21036, 5049, 5206, 26, 14, 1570653082.285, 126, 98, 1024, 1024, 1024, 1024, 0, , 3707, 3725, 3724, 3771, 3708, 3709, 0, 1, 12204, -89.900, 0.000, 9.100, 0.100, 0.000, -2.900, 0.0, , , , , , , 94, , , 0, 0, 0, ,0.0036100
 40.0403319, -105.5691753, 16.900, 14:31:22.385, 16, 0.00, 0.54, 97, -1.500, 1.900, 7.700, 2, --, 98, 19, 22422, -21036, 5049, 5206, 26, 14, 1570653082.385, 2, 98, 1024, 1024, 1024, 1024, 0, , 3707, 3725, 3724, 3771, 3708, 3709, 0, 1, 12304, -89.900, 0.000, 9.100, 0.000, 0.000, -2.800, 0.0, , , , , , , 94, , , 0, 0, 0, ,0.0036100
 40.0403320, -105.5691754, 17.200, 14:31:22.487, 16, 0.00, 0.54, 97, -1.100, 2.300, 8.000, 2, --, 98, 19, 22422, -21036, 5049, 5206, 26, 14, 1570653082.487, 2, 98, 1024, 1024, 1024, 1024, 0, , 3707, 3725, 3724, 3771, 3708, 3709, 0, 1, 12406, -89.900, 0.000, 9.100, 0.000, 0.000, -2.900, 0.0, , , , , , , 94, , , 0, 0, 0, ,0.0036100
 40.0403320, -105.5691754, 17.500, 14:31:22.585, 16, 0.00, 0.55, 97, -1.000, 2.200, 8.300, 2, --, 95, 19, 22422, -21036, 5049, 5206, 26, 14, 1570653082.585, 1, 95, 1024, 1024, 1024, 1024, 0, , 3707, 3725, 3724, 3771, 3708, 3709, 0, 1, 12504, -89.900, 0.000, 9.100, 0.000, 0.000, -3.000, 0.0, , , , , , , 94, , , 0, 0, 0, ,0.0036100
 40.0403320, -105.5691754, 17.500, 14:31:22.685, 16, 0.00, 0.55, 97, -1.000, 2.200, 8.300, 2, --, 95, 19, 22422, -21036, 5049, 5206, 26, 14, 1570653082.685, 101, 95, 1024, 1024, 1024, 1024, 0, , 3707, 3725, 3724, 3771, 3708, 3709, 0, 1, 12604, -89.900, 0.000, 9.100, 0.000, 0.000, -3.000, 0.0, , , , , , , 94, , , 0, 0, 0, ,0.0036100
 40.0403320, -105.5691753, 17.800, 14:31:22.785, 16, 0.00, 0.55, 97, -1.700, 2.000, 8.600, 2, --, 95, 19, 22422, -21036, 5049, 5206, 26, 14, 1570653082.785, 96, 95, 1024, 1024, 1024, 1024, 0, , 3707, 3725, 3724, 3771, 3708, 3709, 0, 1, 12704, -89.900, 0.000, 9.100, 0.000, 0.000, -3.100, 0.0, , , , , , , 94, , , 0, 0, 0, ,0.0036100
 40.0403320, -105.5691753, 18.100, 14:31:22.885, 16, 0.00, 0.55, 97, -2.800, 2.000, 8.900, 2, --, 95, 19, 22422, -21036, 5049, 5206, 26, 14, 1570653082.885, 95, 95, 1024, 1024, 1024, 1024, 0, , 3707, 3725, 3724, 3771, 3708, 3709, 0, 1, 12804, -89.900, 0.000, 9.100, 0.000, 0.000, -3.000, 0.0, , , , , , , 94, , , 0, 0, 0, ,0.0036100
 40.0403320, -105.5691752, 18.500, 14:31:22.984, 16, 0.00, 0.55, 97, -3.500, 1.300, 9.100, 2, --, 95, 19, 22422, -21036, 5049, 5206, 26, 14, 1570653082.985, 95, 95, 1024, 1024, 1024, 1024, 0, , 3707, 3725, 3724, 3771, 3708, 3709, 0, 1, 12904, -89.900, 0.000, 9.100, 0.000, 0.000, -3.000, 0.0, , , , , , , 94, , , 0, 0, 0, ,0.0036100
 40.0403320, -105.5691752, 18.800, 14:31:23.085, 16, 0.00, 0.55, 97, -4.000, 0.100, 9.100, 2, --, 94, 19, 22166, -23383, 5049, 5206, 26, 14, 1570653083.085, 68, 94, 1024, 1024, 1024, 1024, 0, , 3672, 3691, 3699, 3744, 3690, 3694, 0, 1, 13004, -90.000, 0.000, 9.100, 0.000, 0.000, -3.000, 0.0, , , , , , , 94, , , 0, 0, 0, ,0.0036100
 40.0403320, -105.5691753, 19.400, 14:31:23.185, 16, 0.00, 0.55, 97, -3.400, -0.500, 9.000, 2, --, 94, 19, 22166, -23383, 5049, 5206, 26, 14, 1570653083.185, 70, 94, 1024, 1024, 1024, 1024, 0, , 3672, 3691, 3699, 3744, 3690, 3694, 0, 1, 13104, -90.000, 0.000, 9.100, 0.000, 0.000, -3.000, 0.0, , , , , , , 94, , , 0, 0, 0, ,0.0036100
 40.0403320, -105.5691753, 19.700, 14:31:23.285, 16, 0.00, 0.54, 97, -2.500, -0.700, 8.800, 2, --, 94, 19, 22166, -23383, 5049, 5206, 26, 14, 1570653083.285, 68, 94, 1024, 1024, 1024, 1024, 0, , 3672, 3691, 3699, 3744, 3690, 3694, 0, 1, 13204, -90.000, 0.000, 9.100, 0.000, 0.000, -2.800, 0.0, , , , , , , 94, , , 0, 0, 0, ,0.0036100
 40.0403320, -105.5691754, 20.000, 14:31:23.384, 16, 0.00, 0.54, 97, -2.400, 0.000, 8.500, 2, --, 94, 19, 22166, -23383, 5049, 5206, 26, 14, 1570653083.385, 71, 94, 1024, 1024, 1024, 1024, 0, , 3672, 3691, 3699, 3744, 3690, 3694, 0, 1, 13304, -89.900, 0.000, 9.100, 0.000, 0.000, -2.900, 0.0, , , , , , , 94, , , 0, 0, 0, ,0.0036100
 40.0403320, -105.5691755, 20.300, 14:31:23.484, 16, 0.00, 0.54, 97, -1.500, 0.900, 8.300, 2, --, 94, 19, 22166, -23383, 5049, 5206, 26, 14, 1570653083.485, 53, 94, 1024, 1024, 1024, 1024, 0, , 3672, 3691, 3699, 3744, 3690, 3694, 0, 1, 13404, -89.900, 0.000, 9.100, 0.000, 0.000, -2.900, 0.0, , , , , , , 94, , , 0, 0, 0, ,0.0036100
 40.0403320, -105.5691756, 20.600, 14:31:23.584, 16, 0.00, 0.53, 97, -1.400, 1.100, 8.100, 2, --, 95, 19, 22166, -23383, 5049, 5206, 26, 14, 1570653083.585, 45, 95, 1024, 1024, 1024, 1024, 0, , 3672, 3691, 3699, 3744, 3690, 3694, 0, 1, 13504, -89.900, 0.000, 9.100, 0.000, 0.000, -2.900, 0.0, , , , , , , 94, , , 0, 0, 0, ,0.0036100
 40.0403320, -105.5691756, 20.600, 14:31:23.684, 16, 0.00, 0.53, 97, -1.400, 1.100, 8.100, 2, --, 95, 19, 22166, -23383, 5049, 5206, 26, 14, 1570653083.685, 145, 95, 1024, 1024, 1024, 1024, 0, , 3672, 3691, 3699, 3744, 3690, 3694, 0, 1, 13604, -89.900, 0.000, 9.100, 0.000, 0.000, -2.900, 0.0, , , , , , , 94, , , 0, 0, 0, ,0.0036100
 40.0403320, -105.5691755, 21.200, 14:31:23.785, 16, 0.00, 0.54, 97, -1.900, -0.400, 8.300, 2, --, 95, 19, 22166, -23383, 5049, 5206, 26, 14, 1570653083.785, 44, 95, 1024, 1024, 1024, 1024, 0, , 3672, 3691, 3699, 3744, 3690, 3694, 0, 1, 13704, -89.900, 0.000, 9.100, 0.000, 0.000, -3.200, 0.0, , , , , , , 94, , , 0, 0, 0, ,0.0036100
 40.0403320, -105.5691754, 21.600, 14:31:23.884, 16, 0.10, 0.54, 97, -3.200, -1.600, 8.600, 2, --, 95, 19, 22166, -23383, 5049, 5206, 26, 14, 1570653083.885, 45, 95, 1024, 1024, 1024, 1024, 0, , 3672, 3691, 3699, 3744, 3690, 3694, 0, 1, 13804, -89.900, 0.000, 9.100, 0.000, 0.100, -3.300, 0.0, , , , , , , 94, , , 0, 0, 0, ,0.0036100
 40.0403319, -105.5691752, 21.900, 14:31:23.984, 16, 0.10, 0.55, 97, -4.800, -1.500, 8.700, 2, --, 95, 19, 22166, -23383, 5049, 5206, 26, 14, 1570653083.985, 37, 95, 1024, 1024, 1024, 1024, 0, , 3672, 3691, 3699, 3744, 3690, 3694, 0, 1, 13904, -89.900, 0.000, 9.100, 0.000, 0.100, -3.100, 0.0, , , , , , , 94, , , 0, 0, 0, ,0.0036100
 40.0403319, -105.5691749, 22.200, 14:31:24.084, 16, 0.20, 0.57, 97, -6.100, -0.200, 8.600, 2, --, 95, 19, 21999, -23876, 4997, 5206, 26, 14, 1570653084.085, 44, 95, 1024, 1024, 1024, 1024, 0, , 3672, 3691, 3699, 3744, 3690, 3694, 0, 1, 14003, -89.900, 0.000, 9.100, 0.000, 0.200, -2.900, 0.1, , , , , , , 94, , , 0, 0, 0, ,0.0036100
 40.0403318, -105.5691747, 22.500, 14:31:24.184, 16, 0.10, 0.58, 97, -6.800, 0.300, 8.500, 2, --, 95, 19, 21999, -23876, 4997, 5206, 26, 14, 1570653084.185, 44, 95, 1024, 1024, 1024, 1024, 0, , 3672, 3691, 3699, 3744, 3690, 3694, 0, 1, 14104, -89.900, 0.000, 9.100, 0.000, 0.100, -2.800, 0.0, , , , , , , 94, , , 0, 0, 0, ,0.0036100
 40.0403317, -105.5691745, 22.700, 14:31:24.284, 16, 0.10, 0.59, 97, -6.800, 0.100, 8.500, 2, --, 95, 19, 21999, -23876, 4997, 5206, 26, 14, 1570653084.285, 19, 95, 1024, 1024, 1024, 1024, 0, , 3672, 3691, 3699, 3744, 3690, 3694, 0, 1, 14204, -89.900, 0.000, 9.100, 0.000, 0.100, -2.800, 0.0, , , , , , , 94, , , 0, 0, 0, ,0.0036100
 40.0403317, -105.5691745, 22.700, 14:31:24.384, 16, 0.10, 0.59, 97, -6.800, 0.100, 8.500, 2, --, 95, 19, 21999, -23876, 4997, 5206, 26, 14, 1570653084.385, 119, 95, 1024, 1024, 1024, 1024, 0, , 3672, 3691, 3699, 3744, 3690, 3694, 0, 1, 14304, -90.000, 0.000, 9.100, 0.000, 0.100, -2.800, 0.0, , , , , , , 94, , , 0, 0, 0, ,0.0036100
 40.0403316, -105.5691743, 23.300, 14:31:24.485, 16, 0.00, 0.60, 97, -5.700, -0.600, 8.700, 2, --, 95, 19, 21999, -23876, 4997, 5206, 26, 14, 1570653084.485, 35, 95, 1024, 1024, 1024, 1024, 0, , 3632, 3657, 3669, 3724, 3646, 3657, 0, 1, 14404, -89.900, 0.000, 9.100, 0.000, 0.000, -2.900, 0.0, , , , , , , 94, , , 0, 0, 0, ,0.0036100
 40.0403315, -105.5691743, 23.600, 14:31:24.584, 16, 0.00, 0.59, 97, -5.200, -0.500, 8.600, 2, --, 96, 19, 21999, -23876, 4997, 5206, 26, 14, 1570653084.585, 2, 96, 1024, 1024, 1024, 1024, 0, , 3632, 3657, 3669, 3724, 3646, 3657, 0, 1, 14503, -89.900, 0.000, 9.100, 0.000, 0.000, -2.900, 0.0, , , , , , , 94, , , 0, 0, 0, ,0.0036100
 40.0403314, -105.5691743, 23.900, 14:31:24.684, 16, 0.10, 0.59, 97, -4.400, -0.500, 8.600, 2, --, 96, 19, 21999, -23876, 4997, 5206, 26, 14, 1570653084.685, 15, 96, 1024, 1024, 1024, 1024, 0, , 3632, 3657, 3669, 3724, 3646, 3657, 0, 1, 14603, -90.000, 0.000, 9.100, -0.100, 0.000, -2.900, 0.0, , , , , , , 94, , , 0, 0, 0, ,0.0036100
 40.0403313, -105.5691744, 24.200, 14:31:24.784, 16, 0.10, 0.58, 97, -3.800, -0.900, 8.600, 2, --, 96, 19, 21999, -23876, 4997, 5206, 26, 14, 1570653084.785, 15, 96, 1024, 1024, 1024, 1024, 0, , 3632, 3657, 3669, 3724, 3646, 3657, 0, 1, 14703, -90.000, 0.000, 9.100, -0.100, 0.000, -2.900, 0.0, , , , , , , 94, , , 0, 0, 0, ,0.0036100
 40.0403312, -105.5691745, 24.500, 14:31:24.885, 16, 0.10, 0.56, 97, -3.400, -1.800, 8.600, 2, --, 96, 19, 21999, -23876, 4997, 5206, 26, 14, 1570653084.885, 6, 96, 1024, 1024, 1024, 1024, 0, , 3632, 3657, 3669, 3724, 3646, 3657, 0, 1, 14804, -90.000, 0.000, 9.100, -0.100, 0.000, -3.000, 0.0, , , , , , , 94, , , 0, 0, 0, ,0.0036100
 40.0403312, -105.5691745, 24.500, 14:31:24.984, 16, 0.10, 0.56, 97, -3.400, -1.800, 8.600, 2, --, 96, 19, 21999, -23876, 4997, 5206, 26, 14, 1570653084.985, 106, 96, 1024, 1024, 1024, 1024, 0, , 3632, 3657, 3669, 3724, 3646, 3657, 0, 1, 14904, -90.000, 0.000, 9.100, -0.100, 0.000, -3.000, 0.0, , , , , , , 94, , , 0, 0, 0, ,0.0036100
 40.0403310, -105.5691745, 24.800, 14:31:25.084, 16, 0.10, 0.55, 96, -3.600, -2.900, 8.700, 2, --, 96, 19, 21888, -23876, 4997, 5206, 26, 14, 1570653085.085, 95, 96, 1024, 1024, 1024, 1024, 0, , 3632, 3657, 3669, 3724, 3646, 3657, 0, 1, 15004, -89.900, 0.000, 9.100, -0.100, 0.000, -2.900, 0.0, , , , , , , 94, , , 0, 0, 0, ,0.0036100
 40.0403308, -105.5691745, 25.100, 14:31:25.184, 16, 0.10, 0.55, 96, -3.600, -3.500, 8.700, 2, --, 96, 19, 21888, -23876, 4997, 5206, 26, 14, 1570653085.185, 96, 96, 1024, 1024, 1024, 1024, 0, , 3632, 3657, 3669, 3724, 3646, 3657, 0, 1, 15104, -90.000, 0.000, 9.100, -0.100, 0.000, -2.900, 0.0, , , , , , , 94, , , 0, 0, 0, ,0.0036100
 40.0403308, -105.5691745, 25.100, 14:31:25.284, 16, 0.10, 0.55, 96, -3.600, -3.500, 8.700, 2, --, 96, 19, 21888, -23876, 4997, 5206, 26, 14, 1570653085.285, 196, 96, 1024, 1024, 1024, 1024, 0, , 3632, 3657, 3669, 3724, 3646, 3657, 0, 1, 15204, -90.000, 0.000, 9.100, -0.100, 0.000, -2.900, 0.0, , , , , , , 94, , , 0, 0, 0, ,0.0036100
 40.0403303, -105.5691745, 26.000, 14:31:25.384, 16, 0.10, 0.53, 96, -4.600, -3.500, 9.100, 2, --, 96, 19, 21888, -23876, 4997, 5206, 26, 14, 1570653085.385, 91, 96, 1024, 1024, 1024, 1024, 0, , 3632, 3657, 3669, 3724, 3646, 3657, 0, 1, 15304, -90.000, 0.000, 9.100, -0.100, 0.000, -3.000, 0.0, , , , , , , 94, , , 0, 0, 0, ,0.0036100
 40.0403303, -105.5691745, 26.000, 14:31:25.484, 16, 0.10, 0.53, 96, -4.600, -3.500, 9.100, 2, --, 96, 19, 21888, -23876, 4997, 5206, 26, 14, 1570653085.485, 191, 96, 1024, 1024, 1024, 1024, 0, , 3632, 3657, 3669, 3724, 3646, 3657, 0, 1, 15404, -89.900, 0.000, 9.100, -0.100, 0.000, -3.000, 0.0, , , , , , , 94, , , 0, 0, 0, ,0.0036100
 40.0403301, -105.5691744, 26.600, 14:31:25.584, 16, 0.10, 0.53, 96, -5.200, -3.900, 9.600, 2, --, 96, 19, 21888, -23961, 4997, 5206, 26, 14, 1570653085.585, 51, 96, 1024, 1024, 1024, 1024, 0, , 3604, 3652, 3682, 3729, 3669, 3670, 0, 1, 15504, -89.900, 0.000, 9.100, -0.100, 0.000, -3.000, 0.0, , , , , , , 94, , , 0, 0, 0, ,0.0036100
 40.0403300, -105.5691745, 26.900, 14:31:25.684, 16, 0.10, 0.52, 96, -4.500, -4.000, 9.400, 2, --, 96, 19, 21888, -23961, 4997, 5206, 26, 14, 1570653085.685, 74, 96, 1024, 1024, 1024, 1024, 0, , 3604, 3652, 3682, 3729, 3669, 3670, 0, 1, 15604, -89.900, 0.000, 9.100, -0.100, 0.000, -2.900, 0.0, , , , , , , 94, , , 0, 0, 0, ,0.0036100
 40.0403299, -105.5691745, 27.200, 14:31:25.784, 16, 0.00, 0.52, 96, -3.600, -4.200, 9.200, 2, --, 96, 19, 21888, -23961, 4997, 5206, 26, 14, 1570653085.785, 50, 96, 1024, 1024, 1024, 1024, 0, , 3604, 3652, 3682, 3729, 3669, 3670, 0, 1, 15703, -90.000, 0.000, 9.100, 0.000, 0.000, -2.900, 0.0, , , , , , , 94, , , 0, 0, 0, ,0.0036100
 40.0403298, -105.5691746, 27.400, 14:31:25.884, 16, 0.00, 0.51, 96, -2.700, -3.900, 8.800, 2, --, 96, 19, 21888, -23961, 4997, 5206, 26, 14, 1570653085.885, 44, 96, 1024, 1024, 1024, 1024, 0, , 3604, 3652, 3682, 3729, 3669, 3670, 0, 1, 15803, -89.900, 0.000, 9.100, 0.000, 0.000, -2.900, 0.0, , , , , , , 94, , , 0, 0, 0, ,0.0036100
 40.0403298, -105.5691747, 27.700, 14:31:25.984, 16, 0.00, 0.50, 96, -2.200, -3.700, 8.300, 2, --, 96, 19, 21888, -23961, 4997, 5206, 26, 14, 1570653085.985, 65, 96, 1024, 1024, 1024, 1024, 0, , 3604, 3652, 3682, 3729, 3669, 3670, 0, 1, 15903, -89.900, 0.000, 9.100, 0.000, 0.000, -3.100, 0.0, , , , , , , 94, , , 0, 0, 0, ,0.0036100
 40.0403298, -105.5691747, 28.100, 14:31:26.084, 16, 0.00, 0.50, 96, -2.600, -3.400, 8.000, 2, --, 94, 19, 21888, -23961, 4997, 5206, 26, 14, 1570653086.084, 38, 94, 1024, 1024, 1024, 1024, 0, , 3604, 3652, 3682, 3729, 3669, 3670, 0, 1, 16003, -89.900, 0.000, 9.100, 0.000, 0.000, -3.300, 0.0, , , , , , , 94, , , 0, 0, 0, ,0.0036100
 40.0403297, -105.5691747, 28.400, 14:31:26.184, 16, 0.00, 0.50, 96, -3.900, -3.300, 8.000, 2, --, 94, 19, 21888, -23961, 4997, 5206, 26, 14, 1570653086.185, 45, 94, 1024, 1024, 1024, 1024, 0, , 3604, 3652, 3682, 3729, 3669, 3670, 0, 1, 16103, -89.900, 0.000, 9.100, 0.000, 0.000, -3.300, 0.0, , , , , , , 94, , , 0, 0, 0, ,0.0036100
 40.0403297, -105.5691747, 28.700, 14:31:26.284, 16, 0.00, 0.50, 96, -4.700, -3.400, 8.100, 2, --, 94, 19, 21888, -23961, 4997, 5206, 26, 14, 1570653086.285, 45, 94, 1024, 1024, 1024, 1024, 0, , 3604, 3652, 3682, 3729, 3669, 3670, 0, 1, 16204, -89.900, 0.000, 9.100, 0.000, 0.000, -3.300, 0.0, , , , , , , 94, , , 0, 0, 0, ,0.0036100
 40.0403297, -105.5691746, 29.100, 14:31:26.384, 16, 0.00, 0.50, 96, -5.100, -3.600, 8.200, 2, --, 94, 19, 21888, -23961, 4997, 5206, 26, 14, 1570653086.385, 19, 94, 1024, 1024, 1024, 1024, 0, , 3604, 3652, 3682, 3729, 3669, 3670, 0, 1, 16303, -89.900, 0.000, 9.100, 0.000, 0.000, -3.400, 0.0, , , , , , , 94, , , 0, 0, 0, ,0.0036100
 40.0403297, -105.5691746, 29.100, 14:31:26.484, 16, 0.00, 0.50, 96, -5.100, -3.600, 8.200, 2, --, 94, 19, 21888, -23961, 4997, 5206, 26, 14, 1570653086.485, 119, 94, 1024, 1024, 1024, 1024, 0, , 3604, 3652, 3682, 3729, 3669, 3670, 0, 1, 16404, -89.900, 0.000, 9.100, 0.000, 0.000, -3.400, 0.0, , , , , , , 94, , , 0, 0, 0, ,0.0036100
 40.0403295, -105.5691746, 29.800, 14:31:26.584, 16, 0.00, 0.50, 96, -5.500, -3.700, 8.700, 2, --, 91, 19, 21888, -23961, 4997, 5206, 26, 14, 1570653086.585, 15, 91, 1024, 1024, 1024, 1024, 0, , 3604, 3652, 3682, 3729, 3669, 3670, 0, 1, 16503, -89.900, 0.000, 9.100, 0.000, 0.000, -3.300, 0.0, , , , , , , 94, , , 0, 0, 0, ,0.0036100
 40.0403294, -105.5691746, 30.100, 14:31:26.684, 16, 0.00, 0.50, 96, -5.400, -3.900, 8.900, 2, --, 91, 19, 21888, -23961, 4997, 5206, 26, 14, 1570653086.685, 32, 91, 1024, 1024, 1024, 1024, 0, , 3604, 3652, 3682, 3729, 3669, 3670, 0, 1, 16604, -89.900, 0.000, 9.100, 0.000, 0.000, -3.100, 0.0, , , , , , , 94, , , 0, 0, 0, ,0.0036100
 40.0403293, -105.5691746, 30.400, 14:31:26.784, 16, 0.00, 0.51, 96, -5.200, -4.000, 9.100, 2, --, 91, 19, 21888, -23961, 4997, 5206, 26, 14, 1570653086.785, 16, 91, 1024, 1024, 1024, 1024, 0, , 3604, 3652, 3682, 3729, 3669, 3670, 0, 1, 16703, -90.000, 0.000, 9.100, 0.000, 0.000, -3.100, 0.0, , , , , , , 94, , , 0, 0, 0, ,0.0036100
 40.0403293, -105.5691746, 30.400, 14:31:26.884, 16, 0.00, 0.51, 96, -5.200, -4.000, 9.100, 2, --, 91, 19, 21888, -23961, 4997, 5206, 26, 14, 1570653086.885, 116, 91, 1024, 1024, 1024, 1024, 0, , 3604, 3652, 3682, 3729, 3669, 3670, 0, 1, 16803, -90.000, 0.000, 9.100, 0.000, 0.000, -3.100, 0.0, , , , , , , 94, , , 0, 0, 0, ,0.0036100
 40.0403292, -105.5691745, 30.700, 14:31:26.984, 16, 0.00, 0.51, 96, -5.000, -4.300, 9.100, 2, --, 91, 19, 21888, -23961, 4997, 5206, 26, 14, 1570653086.985, 96, 91, 1024, 1024, 1024, 1024, 0, , 3604, 3652, 3682, 3729, 3669, 3670, 0, 1, 16903, -89.900, 0.000, 9.100, 0.000, 0.000, -3.100, 0.0, , , , , , , 94, , , 0, 0, 0, ,0.0036100
 40.0403292, -105.5691744, 31.000, 14:31:27.084, 16, 0.00, 0.52, 96, -5.100, -4.200, 9.000, 2, --, 91, 19, 21716, -25398, 4997, 5206, 26, 14, 1570653087.085, 94, 91, 1024, 1024, 1024, 1024, 0, , 3574, 3626, 3618, 3659, 3591, 3618, 0, 1, 17003, -89.900, 0.000, 9.100, 0.000, 0.000, -3.000, 0.0, , , , , , , 94, , , 0, 0, 0, ,0.0036100
 40.0403291, -105.5691743, 31.400, 14:31:27.184, 16, 0.00, 0.53, 96, -5.600, -3.900, 9.000, 2, --, 93, 19, 21716, -25398, 4997, 5206, 26, 14, 1570653087.185, 98, 93, 1024, 1024, 1024, 1024, 0, , 3574, 3626, 3618, 3659, 3591, 3618, 0, 1, 17104, -89.900, 0.000, 9.100, 0.000, 0.000, -3.000, 0.0, , , , , , , 94, , , 0, 0, 0, ,0.0036100
 40.0403290, -105.5691742, 31.700, 14:31:27.284, 16, 0.00, 0.54, 96, -6.400, -3.800, 9.000, 2, --, 93, 19, 21716, -25398, 4997, 5206, 26, 14, 1570653087.285, 85, 93, 1024, 1024, 1024, 1024, 0, , 3574, 3626, 3618, 3659, 3591, 3618, 0, 1, 17203, -89.900, 0.000, 9.100, 0.000, 0.000, -3.000, 0.0, , , , , , , 94, , , 0, 0, 0, ,0.0036100
 40.0403290, -105.5691740, 32.000, 14:31:27.384, 16, 0.00, 0.55, 96, -6.800, -3.800, 9.000, 2, --, 93, 19, 21716, -25398, 4997, 5206, 26, 14, 1570653087.385, 82, 93, 1024, 1024, 1024, 1024, 0, , 3574, 3626, 3618, 3659, 3591, 3618, 0, 1, 17303, -89.900, 0.000, 9.100, 0.000, 0.000, -3.000, 0.0, , , , , , , 94, , , 0, 0, 0, ,0.0036100
 40.0403290, -105.5691738, 32.300, 14:31:27.484, 16, 0.10, 0.57, 96, -7.600, -3.900, 9.000, 2, --, 93, 19, 21716, -25398, 4997, 5206, 26, 14, 1570653087.485, 95, 93, 1024, 1024, 1024, 1024, 0, , 3574, 3626, 3618, 3659, 3591, 3618, 0, 1, 17403, -89.900, 0.000, 9.100, 0.000, 0.100, -2.900, 0.0, , , , , , , 94, , , 0, 0, 0, ,0.0036100
 40.0403289, -105.5691736, 32.600, 14:31:27.584, 16, 0.10, 0.59, 96, -8.000, -4.000, 8.800, 2, --, 93, 19, 22232, -19302, 4997, 5206, 26, 14, 1570653087.585, 94, 93, 1024, 1024, 1024, 1024, 0, , 3669, 3703, 3714, 3760, 3699, 3638, 0, 1, 17503, -89.900, 0.000, 9.100, 0.000, 0.100, -2.700, 0.0, , , , , , , 94, , , 0, 0, 0, ,0.0036100
 40.0403289, -105.5691734, 32.900, 14:31:27.684, 16, 0.10, 0.60, 96, -7.700, -3.600, 8.500, 2, --, 93, 19, 22232, -19302, 4997, 5206, 26, 14, 1570653087.685, 94, 93, 1024, 1024, 1024, 1024, 0, , 3669, 3703, 3714, 3760, 3699, 3638, 0, 1, 17604, -89.900, 0.000, 9.100, 0.000, 0.100, -2.700, 0.0, , , , , , , 94, , , 0, 0, 0, ,0.0036100
 40.0403291, -105.5691729, 33.400, 14:31:27.784, 16, 0.14, 0.65, 96, -8.400, -2.200, 8.100, 2, --, 93, 19, 22232, -19302, 4997, 5206, 26, 14, 1570653087.785, 66, 93, 1024, 1024, 1024, 1024, 0, , 3669, 3703, 3714, 3760, 3699, 3638, 0, 1, 17703, -89.900, 0.000, 9.100, 0.100, 0.100, -2.600, 0.1, , , , , , , 94, , , 0, 0, 0, ,0.0036100
 40.0403292, -105.5691726, 33.700, 14:31:27.884, 16, 0.14, 0.67, 96, -8.600, -1.400, 8.000, 2, --, 93, 19, 22232, -19302, 4997, 5206, 26, 14, 1570653087.885, 85, 93, 1024, 1024, 1024, 1024, 0, , 3669, 3703, 3714, 3760, 3699, 3638, 0, 1, 17804, -89.900, 0.000, 9.100, 0.100, 0.100, -2.600, 0.1, , , , , , , 94, , , 0, 0, 0, ,0.0036100
 40.0403293, -105.5691725, 33.900, 14:31:27.984, 16, 0.10, 0.69, 96, -8.400, -0.600, 8.000, 2, --, 93, 19, 22232, -19302, 4997, 5206, 26, 14, 1570653087.985, 53, 93, 1024, 1024, 1024, 1024, 0, , 3669, 3703, 3714, 3760, 3699, 3638, 0, 1, 17903, -89.900, 0.000, 9.100, 0.100, 0.000, -2.500, 0.0, , , , , , , 94, , , 0, 0, 0, ,0.0036100
 40.0403295, -105.5691724, 34.100, 14:31:28.084, 16, 0.10, 0.70, 96, -7.400, 0.200, 8.200, 2, --, 96, 19, 22232, -19302, 4997, 5206, 26, 14, 1570653088.084, 64, 96, 1024, 1024, 1024, 1024, 0, , 3669, 3703, 3714, 3760, 3699, 3638, 0, 1, 18003, -89.900, 0.000, 9.100, 0.100, 0.000, -2.500, 0.0, , , , , , , 94, , , 0, 0, 0, ,0.0036100
 40.0403296, -105.5691723, 34.400, 14:31:28.184, 16, 0.10, 0.70, 96, -6.200, 0.800, 8.600, 2, --, 96, 19, 22232, -19302, 4997, 5206, 26, 14, 1570653088.185, 56, 96, 1024, 1024, 1024, 1024, 0, , 3669, 3703, 3714, 3760, 3699, 3638, 0, 1, 18103, -89.900, 0.000, 9.100, 0.100, 0.000, -2.500, 0.0, , , , , , , 94, , , 0, 0, 0, ,0.0036100
 40.0403297, -105.5691723, 34.600, 14:31:28.284, 16, 0.10, 0.70, 96, -5.500, 0.600, 9.100, 2, --, 96, 19, 22232, -19302, 4997, 5206, 26, 14, 1570653088.285, 55, 96, 1024, 1024, 1024, 1024, 0, , 3669, 3703, 3714, 3760, 3699, 3638, 0, 1, 18203, -89.900, 0.000, 9.100, 0.100, 0.000, -2.600, 0.0, , , , , , , 94, , , 0, 0, 0, ,0.0036100
 40.0403299, -105.5691723, 34.900, 14:31:28.384, 16, 0.10, 0.71, 96, -5.300, 0.000, 9.400, 2, --, 96, 19, 22232, -19302, 4997, 5206, 26, 14, 1570653088.385, 56, 96, 1024, 1024, 1024, 1024, 0, , 3669, 3703, 3714, 3760, 3699, 3638, 0, 1, 18303, -89.900, 0.000, 9.100, 0.100, 0.000, -2.700, 0.0, , , , , , , 94, , , 0, 0, 0, ,0.0036100
 40.0403300, -105.5691722, 35.100, 14:31:28.484, 16, 0.10, 0.71, 96, -5.400, -0.400, 9.300, 2, --, 96, 19, 21973, -21991, 4997, 5206, 26, 14, 1570653088.485, 54, 96, 1024, 1024, 1024, 1024, 0, , 3572, 3613, 3640, 3707, 3622, 3627, 0, 1, 18403, -90.000, 0.000, 9.100, 0.100, 0.000, -2.700, 0.0, , , , , , , 94, , , 0, 0, 0, ,0.0036100
 40.0403301, -105.5691722, 35.400, 14:31:28.584, 16, 0.10, 0.71, 96, -5.300, -0.600, 8.800, 2, --, 97, 19, 21973, -21991, 4997, 5206, 26, 14, 1570653088.585, 54, 97, 1024, 1024, 1024, 1024, 0, , 3572, 3613, 3640, 3707, 3622, 3627, 0, 1, 18503, -90.000, 0.000, 9.100, 0.100, 0.000, -3.000, 0.0, , , , , , , 94, , , 0, 0, 0, ,0.0036100
 40.0403303, -105.5691722, 35.700, 14:31:28.684, 16, 0.10, 0.72, 96, -6.000, -0.500, 8.100, 2, --, 97, 19, 21973, -21991, 4997, 5206, 26, 14, 1570653088.685, 54, 97, 1024, 1024, 1024, 1024, 0, , 3572, 3613, 3640, 3707, 3622, 3627, 0, 1, 18603, -89.900, 0.000, 9.100, 0.100, 0.000, -3.100, 0.0, , , , , , , 94, , , 0, 0, 0, ,0.0036100
 40.0403305, -105.5691721, 36.000, 14:31:28.784, 16, 0.20, 0.73, 96, -7.200, 0.100, 7.600, 2, --, 97, 19, 21973, -21991, 4997, 5206, 26, 14, 1570653088.785, 25, 97, 1024, 1024, 1024, 1024, 0, , 3572, 3613, 3640, 3707, 3622, 3627, 0, 1, 18703, -89.900, 0.000, 9.100, 0.200, 0.000, -3.000, 0.1, , , , , , , 94, , , 0, 0, 0, ,0.0036100
 40.0403307, -105.5691721, 36.300, 14:31:28.884, 16, 0.20, 0.74, 96, -7.700, 1.200, 7.000, 2, --, 97, 19, 21973, -21991, 4997, 5206, 26, 14, 1570653088.885, 35, 97, 1024, 1024, 1024, 1024, 0, , 3572, 3613, 3640, 3707, 3622, 3627, 0, 1, 18803, -89.900, 0.000, 9.100, 0.200, 0.000, -3.000, 0.1, , , , , , , 94, , , 0, 0, 0, ,0.0036100
 40.0403309, -105.5691720, 36.600, 14:31:28.984, 16, 0.10, 0.75, 96, -7.400, 2.100, 6.600, 2, --, 97, 19, 21973, -21991, 4997, 5206, 26, 14, 1570653088.985, 15, 97, 1024, 1024, 1024, 1024, 0, , 3572, 3613, 3640, 3707, 3622, 3627, 0, 1, 18903, -89.900, 0.000, 9.100, 0.100, 0.000, -2.900, 0.0, , , , , , , 94, , , 0, 0, 0, ,0.0036100
 40.0403311, -105.5691720, 36.900, 14:31:29.084, 16, 0.10, 0.76, 96, -6.900, 2.100, 6.600, 2, --, 96, 19, 21973, -21991, 4997, 5206, 26, 14, 1570653089.085, 20, 96, 1024, 1024, 1024, 1024, 0, , 3572, 3613, 3640, 3707, 3622, 3627, 0, 1, 19003, -89.900, 0.000, 9.100, 0.100, 0.000, -3.000, 0.0, , , , , , , 94, , , 0, 0, 0, ,0.0036100
 40.0403312, -105.5691720, 37.200, 14:31:29.184, 16, 0.00, 0.76, 96, -6.600, 1.200, 7.100, 2, --, 96, 19, 21973, -21991, 4997, 5206, 26, 14, 1570653089.185, 5, 96, 1024, 1024, 1024, 1024, 0, , 3572, 3613, 3640, 3707, 3622, 3627, 0, 1, 19103, -90.000, 0.000, 9.100, 0.000, 0.000, -3.200, 0.0, , , , , , , 94, , , 0, 0, 0, ,0.0036100
 40.0403312, -105.5691720, 37.200, 14:31:29.284, 16, 0.00, 0.76, 96, -6.600, 1.200, 7.100, 2, --, 96, 19, 21973, -21991, 4997, 5206, 26, 14, 1570653089.284, 105, 96, 1024, 1024, 1024, 1024, 0, , 3572, 3613, 3640, 3707, 3622, 3627, 0, 1, 19203, -90.000, 0.000, 9.100, 0.000, 0.000, -3.200, 0.0, , , , , , , 94, , , 0, 0, 0, ,0.0036100
 40.0403314, -105.5691720, 37.900, 14:31:29.384, 16, 0.00, 0.77, 96, -6.500, 0.100, 8.400, 2, --, 96, 19, 21973, -21991, 4997, 5206, 26, 14, 1570653089.384, 5, 96, 1024, 1024, 1024, 1024, 0, , 3572, 3613, 3640, 3707, 3622, 3627, 0, 1, 19303, -90.000, 0.000, 9.100, 0.000, 0.000, -3.400, 0.0, , , , , , , 94, , , 0, 0, 0, ,0.0036100
 40.0403314, -105.5691720, 38.200, 14:31:29.484, 16, 0.00, 0.77, 96, -6.400, -0.300, 8.900, 2, --, 96, 20, 21560, -26266, 4997, 5206, 26, 14, 1570653089.485, 10, 96, 1024, 1024, 1024, 1024, 0, , 3572, 3613, 3640, 3707, 3622, 3627, 0, 1, 19403, -90.000, 0.000, 9.100, 0.000, 0.000, -3.200, 0.0, , , , , , , 94, , , 0, 0, 0, ,0.0036100
 40.0403315, -105.5691721, 38.500, 14:31:29.584, 16, 0.00, 0.77, 96, -6.200, -0.400, 9.100, 2, --, 95, 20, 21560, -26266, 4997, 5206, 26, 14, 1570653089.584, 3, 95, 1024, 1024, 1024, 1024, 0, , 3572, 3613, 3640, 3707, 3622, 3627, 0, 1, 19503, -89.900, 0.000, 9.100, 0.000, 0.000, -3.200, 0.0, , , , , , , 94, , , 0, 0, 0, ,0.0036100
 40.0403315, -105.5691721, 38.500, 14:31:29.684, 16, 0.00, 0.77, 96, -6.200, -0.400, 9.100, 2, --, 95, 20, 21560, -26266, 4997, 5206, 26, 14, 1570653089.685, 104, 95, 1024, 1024, 1024, 1024, 0, , 3572, 3613, 3640, 3707, 3622, 3627, 0, 1, 19603, -89.900, 0.000, 9.100, 0.000, 0.000, -3.200, 0.0, , , , , , , 94, , , 0, 0, 0, ,0.0036100
 40.0403317, -105.5691721, 38.800, 14:31:29.784, 16, 0.10, 0.77, 96, -6.700, 0.400, 8.900, 2, --, 95, 20, 21560, -26266, 4997, 5206, 26, 14, 1570653089.784, 79, 95, 1024, 1024, 1024, 1024, 0, , 3572, 3613, 3640, 3707, 3622, 3627, 0, 1, 19703, -89.900, 0.000, 9.100, 0.100, 0.000, -3.200, 0.0, , , , , , , 94, , , 0, 0, 0, ,0.0036100
 40.0403318, -105.5691720, 39.100, 14:31:29.884, 16, 0.10, 0.78, 96, -6.600, 1.300, 8.700, 2, --, 95, 20, 21560, -26266, 4997, 5206, 26, 14, 1570653089.884, 98, 95, 1024, 1024, 1024, 1024, 0, , 3572, 3613, 3640, 3707, 3622, 3627, 0, 1, 19803, -89.900, 0.000, 9.100, 0.100, 0.000, -3.100, 0.0, , , , , , , 94, , , 0, 0, 0, ,0.0036100
 40.0403319, -105.5691720, 39.500, 14:31:29.984, 16, 0.00, 0.79, 96, -6.400, 1.800, 8.400, 2, --, 95, 20, 21560, -26266, 4997, 5206, 26, 14, 1570653089.984, 55, 95, 1024, 1024, 1024, 1024, 0, , 3572, 3613, 3640, 3707, 3622, 3627, 0, 1, 19903, -89.900, 0.000, 9.100, 0.000, 0.000, -3.100, 0.0, , , , , , , 94, , , 0, 0, 0, ,0.0036100
 40.0403321, -105.5691720, 40.100, 14:31:30.084, 16, 0.00, 0.80, 96, -6.200, 2.100, 8.200, 2, --, 96, 20, 21560, -26266, 4997, 5206, 26, 14, 1570653090.084, 56, 96, 1024, 1024, 1024, 1024, 0, , 3533, 3583, 3589, 3662, 3570, 3598, 0, 1, 20003, -89.900, 0.000, 9.100, 0.000, 0.000, -3.100, 0.0, , , , , , , 94, , , 0, 0, 0, ,0.0036100
 40.0403321, -105.5691720, 40.100, 14:31:30.184, 16, 0.00, 0.80, 96, -6.200, 2.100, 8.200, 2, --, 96, 20, 21560, -26266, 4997, 5206, 26, 14, 1570653090.184, 156, 96, 1024, 1024, 1024, 1024, 0, , 3533, 3583, 3589, 3662, 3570, 3598, 0, 1, 20103, -89.900, 0.000, 9.200, 0.000, 0.000, -3.100, 0.0, , , , , , , 94, , , 0, 0, 0, ,0.0036100
 40.0403323, -105.5691720, 40.700, 14:31:30.284, 16, 0.00, 0.81, 96, -6.800, 0.100, 8.400, 2, --, 96, 20, 21560, -26266, 4997, 5206, 26, 14, 1570653090.284, 72, 96, 1024, 1024, 1024, 1024, 0, , 3533, 3583, 3589, 3662, 3570, 3598, 0, 1, 20203, -90.000, 0.000, 9.100, 0.000, 0.000, -3.200, 0.0, , , , , , , 94, , , 0, 0, 0, ,0.0036100
 40.0403323, -105.5691720, 41.000, 14:31:30.384, 16, 0.00, 0.81, 96, -7.000, 0.000, 8.500, 2, --, 96, 20, 21560, -26266, 4997, 5206, 26, 14, 1570653090.384, 74, 96, 1024, 1024, 1024, 1024, 0, , 3533, 3583, 3589, 3662, 3570, 3598, 0, 1, 20303, -90.000, 0.000, 9.100, 0.000, 0.000, -3.000, 0.0, , , , , , , 94, , , 0, 0, 0, ,0.0036100
 40.0403324, -105.5691720, 41.300, 14:31:30.484, 16, 0.00, 0.81, 96, -6.700, 0.300, 8.400, 2, --, 96, 20, 21560, -26266, 4997, 5206, 26, 14, 1570653090.484, 48, 96, 1024, 1024, 1024, 1024, 0, , 3533, 3583, 3589, 3662, 3570, 3598, 0, 1, 20403, -89.900, 0.000, 9.100, 0.000, 0.000, -3.000, 0.0, , , , , , , 94, , , 0, 0, 0, ,0.0036100
 40.0403325, -105.5691721, 41.600, 14:31:30.584, 16, 0.00, 0.81, 96, -6.100, 0.900, 8.400, 2, --, 97, 20, 21773, -26266, 4997, 5206, 26, 14, 1570653090.584, 50, 97, 1024, 1024, 1024, 1024, 0, , 3533, 3583, 3589, 3662, 3570, 3598, 0, 1, 20503, -89.900, 0.000, 9.100, 0.000, 0.000, -3.000, 0.0, , , , , , , 94, , , 0, 0, 0, ,0.0036100
 40.0403326, -105.5691721, 41.900, 14:31:30.684, 16, 0.00, 0.81, 96, -5.800, 1.800, 8.100, 2, --, 97, 20, 21773, -26266, 4997, 5206, 26, 14, 1570653090.684, 63, 97, 1024, 1024, 1024, 1024, 0, , 3533, 3583, 3589, 3662, 3570, 3598, 0, 1, 20603, -89.900, 0.000, 9.100, 0.000, 0.000, -3.100, 0.0, , , , , , , 94, , , 0, 0, 0, ,0.0036100
 40.0403327, -105.5691721, 42.200, 14:31:30.784, 16, 0.00, 0.82, 96, -6.000, 2.300, 7.900, 2, --, 97, 20, 21773, -26266, 4997, 5206, 26, 14, 1570653090.784, 63, 97, 1024, 1024, 1024, 1024, 0, , 3533, 3583, 3589, 3662, 3570, 3598, 0, 1, 20703, -89.900, 0.000, 9.100, 0.000, 0.000, -3.100, 0.0, , , , , , , 94, , , 0, 0, 0, ,0.0036100
 40.0403328, -105.5691721, 42.600, 14:31:30.884, 16, 0.00, 0.82, 96, -7.100, 2.000, 7.900, 2, --, 97, 20, 21773, -26266, 4997, 5206, 26, 14, 1570653090.884, 32, 97, 1024, 1024, 1024, 1024, 0, , 3533, 3583, 3589, 3662, 3570, 3598, 0, 1, 20803, -89.900, 0.000, 9.100, 0.000, 0.000, -3.200, 0.0, , , , , , , 94, , , 0, 0, 0, ,0.0036100
 40.0403328, -105.5691721, 42.900, 14:31:30.984, 16, 0.00, 0.83, 96, -7.700, 1.300, 8.000, 2, --, 97, 20, 21773, -22985, 4997, 5206, 26, 14, 1570653090.984, 34, 97, 1024, 1024, 1024, 1024, 0, , 3587, 3623, 3636, 3703, 3605, 3640, 0, 1, 20903, -89.900, 0.000, 9.100, 0.000, 0.000, -3.000, 0.0, , , , , , , 94, , , 0, 0, 0, ,0.0036100
 40.0403328, -105.5691720, 43.200, 14:31:31.084, 16, 0.00, 0.84, 96, -8.100, 1.000, 8.000, 2, --, 99, 20, 21773, -22985, 4997, 5206, 26, 14, 1570653091.084, 32, 99, 1024, 1024, 1024, 1024, 0, , 3587, 3623, 3636, 3703, 3605, 3640, 0, 1, 21003, -89.900, 0.000, 9.100, 0.000, 0.000, -3.100, 0.0, , , , , , , 94, , , 0, 0, 0, ,0.0036100
 40.0403328, -105.5691719, 43.500, 14:31:31.184, 16, 0.00, 0.84, 96, -8.200, 1.600, 7.900, 2, --, 99, 20, 21773, -22985, 4997, 5206, 26, 14, 1570653091.184, 44, 99, 1024, 1024, 1024, 1024, 0, , 3587, 3623, 3636, 3703, 3605, 3640, 0, 1, 21103, -89.900, 0.000, 9.100, 0.000, 0.000, -3.000, 0.0, , , , , , , 94, , , 0, 0, 0, ,0.0036100
 40.0403329, -105.5691720, 43.800, 14:31:31.284, 16, 0.00, 0.84, 96, -7.900, 1.700, 8.000, 2, --, 99, 20, 21773, -22985, 4997, 5206, 26, 14, 1570653091.284, 43, 99, 1024, 1024, 1024, 1024, 0, , 3587, 3623, 3636, 3703, 3605, 3640, 0, 1, 21203, -89.900, 0.000, 9.100, 0.000, 0.000, -2.800, 0.0, , , , , , , 94, , , 0, 0, 0, ,0.0036100
 40.0403329, -105.5691720, 44.000, 14:31:31.384, 16, 0.00, 0.84, 96, -7.400, 1.600, 7.900, 2, --, 99, 20, 21773, -22985, 4997, 5206, 26, 14, 1570653091.384, 34, 99, 1024, 1024, 1024, 1024, 0, , 3587, 3623, 3636, 3703, 3605, 3640, 0, 1, 21303, -89.900, 0.000, 9.100, 0.000, 0.000, -2.800, 0.0, , , , , , , 94, , , 0, 0, 0, ,0.0036100
 40.0403329, -105.5691720, 44.000, 14:31:31.484, 16, 0.00, 0.84, 96, -7.400, 1.600, 7.900, 2, --, 99, 20, 21773, -22985, 4997, 5206, 26, 14, 1570653091.484, 134, 99, 1024, 1024, 1024, 1024, 0, , 3587, 3623, 3636, 3703, 3605, 3640, 0, 1, 21403, -89.900, 0.000, 9.100, 0.000, 0.000, -2.800, 0.0, , , , , , , 94, , , 0, 0, 0, ,0.0036100
