Latitude, Longitude, Altitude (m), Time, Sats, Speed (m/s), Range (m), Battery (%), Roll (deg), Pitch (deg), Yaw (deg), Images, HD Signal (%), RC Signal (%), Battery Temp (C), Battery Voltage (mV), Battery Current (mA), Battery Energy (mAh), Battery Capacity (mAh), Battery Discharges, flyState, timestamp (Unix), LastUpdate (ms), radioChannel, Rc_elevator, Rc_aileron, Rc_throttle, Rc_rudder, Rc_gyro, Dronetype, Battery_Cell1 (mV), Battery_Cell2 (mV), Battery_Cell3 (mV), Battery_Cell4 (mV), Battery_Cell5 (mV), Battery_Cell6 (mV), Video, isFlying, elapsedTime (ms), gimbalPitch (deg), gimbalRoll (deg), gimbalYaw (deg), VelocityX (m/s), VelocityY (m/s), VelocityZ (m/s), GroundSmear (cm), App Version, Aircraft Name, Aircraft Firmware, Aircraft Serial Number, Battery Firmware, Battery Serial Number, Battery Lifetime (%), App_Tip, App_Warning, CurrentFlightStartingIndex, CurrentFlightLastVisitedWaypoint, PreviousFlightEndingWaypointIndex, DJIDiagnosticError, Focal Length (m)
 40.0403201, -105.5691747, 0.000, 14:48:11.451, 14, 0.36, 0.11, 100, 3.900, 2.000, -72.200, 370, --, 100, 18, 25129, -3744, 5282, 5282, 22, 11, 1570654091.451, 98, 100, 1024, 1024, 1024, 1024, 0, Matrice 100, 4198, 4174, 4165, 4186, 4200, 4184, 0, 1, 4105, -89.900, 0.000, -75.000, 0.200, 0.300, 0.000, 0.1, MapPilot_4.0.8_100120193, Dendroctonus I, 1.3.1.00, 041DDC1887, 03.10.00.00, 1058163200627, 95, Landed / OBSDK - Set Image Spacing to 630 cm / OBSDK - Set Imaging State / OBSDK - Get Image Spacing / OBSDK - Get Imaging State / FlightID: 33456333-6E23-467D-A49A-CF67F78E5762 / MissionID: B8D63E49-B160-40A6-9F9E-1794A38F0C83 / Photo / DJI_0369.jpg, Imaging Interval: 2s - Adjusted Speed: 3.15 m/s / Starting Mission from Lat/Long: 40.04032/-105.56917 Camera: Zenmuse X3 - Overlap: 95/90 - Active Connection: No -  Terrain: SRTM, 21, 21, 21, No Image Transmission Signal / Aircraft GPS Error / IMU is initializing. Do not move the aircraft until initialization is complete,0.0036100
 40.0403204, -105.5691743, 0.000, 14:48:11.551, 14, 0.36, 0.15, 100, 1.900, 0.600, -72.100, 370, --, 100, 18, 25129, -3744, 5282, 5282, 22, 11, 1570654091.551, 84, 100, 1024, 1024, 1024, 1024, 0, , 4198, 4174, 4165, 4186, 4200, 4184, 0, 1, 4205, -89.900, 0.000, -74.900, 0.200, 0.300, -0.200, 0.0, , , , , , , 95, , , 21, 21, 21, ,0.0036100
 40.0403207, -105.5691738, 0.000, 14:48:11.651, 14, 0.42, 0.20, 100, 0.400, -0.500, -72.100, 370, --, 100, 18, 25129, -3744, 5282, 5282, 22, 11, 1570654091.651, 80, 100, 1024, 1024, 1024, 1024, 0, , 4198, 4174, 4165, 4186, 4200, 4184, 0, 1, 4305, -89.900, 0.000, -74.900, 0.300, 0.300, -0.300, 0.1, , , , , , , 95, , , 21, 21, 21, No Image Transmission Signal / Aircraft GPS Error,0.0036100
 40.0403210, -105.5691734, 0.000, 14:48:11.751, 14, 0.42, 0.25, 100, -0.800, -1.200, -72.100, 370, --, 100, 18, 25129, -3744, 5282, 5282, 22, 11, 1570654091.751, 85, 100, 1024, 1024, 1024, 1024, 0, , 4198, 4174, 4165, 4186, 4200, 4184, 0, 1, 4405, -90.000, 0.000, -74.800, 0.300, 0.300, -0.300, 0.1, , , , , , , 95, , , 21, 21, 21, ,0.0036100
 40.0403213, -105.5691731, 0.000, 14:48:11.851, 14, 0.36, 0.29, 100, -2.200, -1.500, -72.200, 370, --, 100, 18, 24154, -7974, 5282, 5282, 22, 11, 1570654091.851, 89, 100, 1024, 1024, 1024, 1024, 0, , 4017, 3996, 4033, 3975, 3986, 3967, 0, 1, 4505, -89.900, 0.000, -74.800, 0.300, 0.200, -0.200, 0.0, , , , , , , 95, , , 21, 21, 21, ,0.0036100
 40.0403216, -105.5691728, 0.000, 14:48:11.951, 14, 0.36, 0.33, 100, -3.600, -1.400, -72.300, 370, --, 100, 18, 24154, -7974, 5282, 5282, 22, 11, 1570654091.951, 78, 100, 1024, 1024, 1024, 1024, 0, , 4017, 3996, 4033, 3975, 3986, 3967, 0, 1, 4605, -89.900, 0.000, -74.700, 0.300, 0.200, -0.200, 0.0, , , , , , , 95, , , 21, 21, 21, ,0.0036100
 40.0403219, -105.5691727, 0.000, 14:48:12.051, 12, 0.22, 0.37, 100, -4.000, -1.300, -72.400, 370, --, 100, 18, 24154, -7974, 5282, 5282, 22, 11, 1570654092.051, 77, 100, 1024, 1024, 1024, 1024, 0, , 4017, 3996, 4033, 3975, 3986, 3967, 0, 1, 4705, -89.900, 0.000, -74.600, 0.200, 0.100, -0.300, 0.0, , , , , , , 95, , , 21, 21, 21, ,0.0036100
 40.0403222, -105.5691724, 0.100, 14:48:12.151, 12, 0.22, 0.40, 100, -3.800, -0.900, -72.500, 370, --, 100, 18, 24154, -7974, 5282, 5282, 22, 11, 1570654092.151, 53, 100, 1024, 1024, 1024, 1024, 0, , 4017, 3996, 4033, 3975, 3986, 3967, 0, 1, 4805, -89.900, 0.000, -74.600, 0.200, 0.100, -0.300, 0.0, , , , , , , 95, , , 21, 21, 21, ,0.0036100
 40.0403223, -105.5691722, 0.100, 14:48:12.251, 13, 0.14, 0.43, 100, -3.500, -0.600, -72.600, 370, --, 100, 18, 24154, -7974, 5282, 5282, 22, 11, 1570654092.251, 64, 100, 1024, 1024, 1024, 1024, 0, , 4017, 3996, 4033, 3975, 3986, 3967, 0, 1, 4905, -89.900, 0.000, -74.600, 0.100, 0.100, -0.400, 0.0, , , , , , , 95, , , 21, 21, 21, ,0.0036100
 40.0403226, -105.5691720, 0.200, 14:48:12.351, 13, 0.00, 0.46, 100, -2.600, 0.000, -72.800, 370, --, 100, 18, 24154, -7974, 5282, 5282, 22, 11, 1570654092.351, 66, 100, 1024, 1024, 1024, 1024, 0, , 4017, 3996, 4033, 3975, 3986, 3967, 0, 1, 5005, -89.900, 0.000, -74.500, 0.000, 0.000, -0.300, 0.0, , , , , , , 95, , , 21, 21, 21, ,0.0036100
 40.0403227, -105.5691720, 0.300, 14:48:12.451, 13, 0.00, 0.48, 100, -1.800, 0.000, -72.800, 370, --, 100, 18, 24154, -7974, 5282, 5282, 22, 11, 1570654092.451, 58, 100, 1024, 1024, 1024, 1024, 0, , 4017, 3996, 4033, 3975, 3986, 3967, 0, 1, 5105, -89.900, 0.000, -74.500, 0.000, 0.000, -0.300, 0.0, , , , , , , 95, , , 21, 21, 21, ,0.0036100
 40.0403228, -105.5691719, 0.300, 14:48:12.551, 15, 0.00, 0.49, 100, -1.300, 0.000, -72.900, 370, --, 100, 18, 24154, -7974, 5282, 5282, 22, 11, 1570654092.551, 31, 100, 1024, 1024, 1024, 1024, 0, , 4017, 3996, 4033, 3975, 3986, 3967, 0, 1, 5205, -89.900, 0.000, -74.400, 0.000, 0.000, -0.300, 0.0, , , , , , , 95, , , 21, 21, 21, ,0.0036100
 40.0403229, -105.5691719, 0.300, 14:48:12.651, 15, 0.00, 0.50, 100, -1.100, 0.000, -73.000, 370, --, 100, 18, 24154, -7974, 5282, 5282, 22, 11, 1570654092.651, 29, 100, 1024, 1024, 1024, 1024, 0, , 4017, 3996, 4033, 3975, 3986, 3967, 0, 1, 5305, -89.900, 0.000, -74.400, 0.000, 0.000, -0.300, 0.0, , , , , , , 95, , , 21, 21, 21, ,0.0036100
 40.0403230, -105.5691718, 0.300, 14:48:12.751, 15, 0.00, 0.50, 100, -1.200, 0.000, -73.000, 370, --, 100, 18, 24154, -7974, 5282, 5282, 22, 11, 1570654092.751, 27, 100, 1024, 1024, 1024, 1024, 0, , 4017, 3996, 4033, 3975, 3986, 3967, 0, 1, 5405, -89.900, 0.000, -74.300, 0.000, 0.000, -0.300, 0.0, , , , , , , 95, , , 21, 21, 21, ,0.0036100
 40.0403230, -105.5691718, 0.400, 14:48:12.851, 15, 0.00, 0.51, 100, -1.200, 0.000, -72.900, 370, --, 100, 18, 22696, -17609, 5282, 5282, 22, 11, 1570654092.851, 30, 100, 1024, 1024, 1024, 1024, 0, , 3754, 3743, 3781, 3789, 3789, 3758, 0, 1, 5505, -89.900, 0.000, -74.300, 0.000, 0.000, -0.500, 0.0, , , , , , , 95, , , 21, 21, 21, ,0.0036100
 40.0403231, -105.5691719, 0.400, 14:48:12.951, 15, 0.00, 0.51, 100, -1.100, 0.100, -72.800, 370, --, 100, 18, 22696, -17609, 5282, 5282, 22, 11, 1570654092.951, 30, 100, 1024, 1024, 1024, 1024, 0, , 3754, 3743, 3781, 3789, 3789, 3758, 0, 1, 5605, -89.900, 0.000, -74.300, 0.000, 0.000, -0.500, 0.0, , , , , , , 95, , , 21, 21, 21, ,0.0036100
 40.0403231, -105.5691719, 0.500, 14:48:13.052, 15, 0.00, 0.52, 100, -1.000, 0.200, -72.700, 370, --, 100, 18, 22696, -17609, 5282, 5282, 22, 11, 1570654093.052, 29, 100, 1024, 1017, 1024, 1024, 0, , 3754, 3743, 3781, 3789, 3789, 3758, 0, 1, 5706, -89.900, 0.000, -74.200, 0.000, 0.000, -0.500, 0.0, , , , , , , 95, , , 21, 21, 21, ,0.0036100
 40.0403232, -105.5691719, 0.500, 14:48:13.151, 14, 0.00, 0.52, 100, -0.900, 0.200, -72.500, 370, --, 100, 18, 22696, -17609, 5282, 5282, 22, 11, 1570654093.151, 22, 100, 1024, 971, 1024, 1024, 0, , 3754, 3743, 3781, 3789, 3789, 3758, 0, 1, 5805, -89.900, 0.000, -74.200, 0.000, 0.000, -0.400, 0.0, , , , , , , 95, , , 21, 21, 21, ,0.0036100
 40.0403232, -105.5691719, 0.500, 14:48:13.251, 14, 0.00, 0.52, 100, -0.900, 0.200, -72.500, 370, --, 100, 18, 22696, -17609, 5282, 5282, 22, 11, 1570654093.251, 121, 100, 1024, 971, 1024, 1024, 0, , 3754, 3743, 3781, 3789, 3789, 3758, 0, 1, 5905, -89.900, 0.000, -74.200, 0.000, 0.000, -0.400, 0.0, , , , , , , 95, , , 21, 21, 21, ,0.0036100
 40.0403232, -105.5691720, 0.600, 14:48:13.352, 14, 0.00, 0.52, 100, -1.400, 0.300, -72.200, 370, --, 100, 18, 22696, -17609, 5282, 5282, 22, 11, 1570654093.352, 1, 100, 1024, 1024, 1024, 1024, 0, , 3754, 3743, 3781, 3789, 3789, 3758, 0, 1, 6006, -89.900, -0.400, -74.100, 0.000, 0.000, -0.500, 0.0, , , , , , , 95, , , 21, 21, 21, ,0.0036100
 40.0403232, -105.5691721, 0.700, 14:48:13.451, 14, 0.00, 0.52, 100, -2.300, 0.100, -72.100, 370, --, 100, 18, 22696, -17609, 5282, 5282, 22, 11, 1570654093.451, 7, 100, 1024, 1024, 1024, 1024, 0, , 3754, 3743, 3781, 3789, 3789, 3758, 0, 1, 6106, -89.900, -0.100, -74.100, 0.000, 0.000, -0.500, 0.0, , , , , , , 95, , , 21, 21, 21, Aircraft GPS Error,0.0036100
 40.0403232, -105.5691722, 0.700, 14:48:13.551, 15, 0.00, 0.51, 100, -1.400, 0.000, -72.100, 370, --, 100, 18, 22696, -17609, 5282, 5282, 22, 11, 1570654093.552, 1, 100, 1024, 1024, 1024, 1024, 0, , 3754, 3743, 3781, 3789, 3789, 3758, 0, 1, 6206, -89.900, 0.000, -74.100, 0.000, 0.000, -0.500, 0.0, , , , , , , 95, , , 21, 21, 21, ,0.0036100
 40.0403232, -105.5691723, 0.800, 14:48:13.652, 15, 0.00, 0.50, 100, -0.500, 0.000, -72.100, 370, --, 100, 18, 22696, -17609, 5282, 5282, 22, 11, 1570654093.652, 1, 100, 1024, 1024, 1024, 1024, 0, , 3754, 3743, 3781, 3789, 3789, 3758, 0, 1, 6307, -89.900, 0.000, -74.100, 0.000, 0.000, -0.500, 0.0, , , , , , , 95, , , 21, 21, 21, ,0.0036100
 40.0403232, -105.5691723, 0.800, 14:48:13.751, 15, 0.00, 0.50, 100, -0.500, 0.000, -72.100, 370, --, 100, 18, 22696, -17609, 5282, 5282, 22, 11, 1570654093.751, 100, 100, 1024, 1024, 1024, 1024, 0, , 3754, 3743, 3781, 3789, 3789, 3758, 0, 1, 6405, -89.900, 0.000, -74.000, 0.000, 0.000, -0.500, 0.0, , , , , , , 95, , , 21, 21, 21, ,0.0036100
 40.0403231, -105.5691724, 0.800, 14:48:13.851, 14, 0.00, 0.49, 100, 0.000, 0.100, -72.100, 370, --, 100, 18, 22696, -17609, 5282, 5282, 22, 11, 1570654093.851, 99, 100, 1024, 1024, 1024, 1024, 0, , 3754, 3743, 3781, 3789, 3789, 3758, 0, 1, 6505, -89.900, 0.000, -74.000, 0.000, 0.000, -0.400, 0.0, , , , , , , 95, , , 21, 21, 21, ,0.0036100
 40.0403231, -105.5691725, 0.900, 14:48:13.951, 14, 0.00, 0.49, 100, 0.100, 0.300, -72.200, 370, --, 100, 18, 22340, -19749, 5282, 5282, 22, 6, 1570654093.951, 91, 100, 1024, 1024, 1024, 1024, 0, , 3689, 3682, 3701, 3712, 3758, 3680, 0, 1, 6605, -89.900, 0.000, -74.000, 0.000, 0.000, -0.400, 0.0, , , , , , , 95, , , 21, 21, 21, ,0.0036100
 40.0403231, -105.5691727, 0.900, 14:48:14.051, 14, 0.00, 0.48, 100, 0.100, 0.400, -72.300, 370, --, 100, 18, 22340, -19749, 5282, 5282, 22, 14, 1570654094.051, 93, 100, 1024, 1024, 1024, 1024, 0, , 3689, 3682, 3701, 3712, 3758, 3680, 0, 1, 6705, -89.900, 0.000, -73.900, 0.000, 0.000, -0.500, 0.0, , , , , , , 95, , , 21, 21, 21, ,0.0036100
 40.0403231, -105.5691728, 1.000, 14:48:14.151, 14, 0.00, 0.47, 100, 0.200, 0.400, -72.400, 370, --, 100, 18, 22340, -19749, 5282, 5282, 22, 14, 1570654094.151, 88, 100, 1024, 1024, 1024, 1024, 0, , 3689, 3682, 3701, 3712, 3758, 3680, 0, 1, 6805, -89.900, 0.000, -73.900, 0.000, 0.000, -0.400, 0.0, , , , , , , 95, , , 21, 21, 21, ,0.0036100
 40.0403231, -105.5691729, 1.000, 14:48:14.251, 14, 0.00, 0.47, 100, 0.400, 0.600, -72.400, 370, --, 100, 18, 22340, -19749, 5282, 5282, 22, 14, 1570654094.251, 74, 100, 1024, 1024, 1024, 1024, 0, , 3689, 3682, 3701, 3712, 3758, 3680, 0, 1, 6905, -89.900, 0.000, -73.900, 0.000, 0.000, -0.300, 0.0, , , , , , , 95, , , 21, 21, 21, ,0.0036100
 40.0403231, -105.5691730, 1.100, 14:48:14.351, 14, 0.00, 0.46, 100, 0.400, 0.800, -72.500, 370, --, 100, 18, 22340, -19749, 5282, 5282, 22, 14, 1570654094.351, 60, 100, 1024, 1024, 1024, 1024, 0, , 3689, 3682, 3701, 3712, 3758, 3680, 0, 1, 7006, -89.900, 0.000, -73.900, 0.000, 0.000, -0.300, 0.0, , , , , , , 95, , , 21, 21, 21, ,0.0036100
 40.0403231, -105.5691732, 1.100, 14:48:14.451, 14, 0.00, 0.46, 100, 0.200, 0.900, -72.500, 370, --, 100, 18, 22340, -19749, 5282, 5282, 22, 14, 1570654094.451, 61, 100, 1024, 1024, 1024, 1024, 0, , 3689, 3682, 3701, 3712, 3758, 3680, 0, 1, 7105, -89.900, 0.000, -73.800, 0.000, 0.000, -0.300, 0.0, , , , , , , 95, , , 21, 21, 21, ,0.0036100
 40.0403232, -105.5691732, 1.100, 14:48:14.551, 14, 0.00, 0.46, 100, 0.000, 0.900, -72.500, 370, --, 100, 18, 22340, -19749, 5282, 5282, 22, 14, 1570654094.551, 60, 100, 1024, 1024, 1024, 1024, 0, , 3689, 3682, 3701, 3712, 3758, 3680, 0, 1, 7206, -89.900, 0.000, -73.800, 0.000, 0.000, -0.400, 0.0, , , , , , , 95, , , 21, 21, 21, ,0.0036100
 40.0403232, -105.5691732, 1.200, 14:48:14.651, 14, 0.00, 0.47, 100, -0.100, 0.800, -72.500, 370, --, 100, 18, 22340, -19749, 5282, 5282, 22, 14, 1570654094.652, 60, 100, 1024, 1024, 1024, 1024, 0, , 3689, 3682, 3701, 3712, 3758, 3680, 0, 1, 7306, -89.900, 0.000, -73.800, 0.000, 0.000, -0.500, 0.0, , , , , , , 95, , , 21, 21, 21, ,0.0036100
 40.0403232, -105.5691733, 1.300, 14:48:14.751, 14, 0.00, 0.46, 100, -0.400, 0.400, -72.500, 370, --, 100, 18, 22340, -19749, 5282, 5282, 22, 14, 1570654094.751, 58, 100, 1024, 1024, 1024, 1024, 0, , 3689, 3682, 3701, 3712, 3758, 3680, 0, 1, 7406, -89.900, 0.000, -73.800, 0.000, 0.000, -0.900, 0.0, , , , , , , 95, , , 21, 21, 21, ,0.0036100
 40.0403232, -105.5691734, 1.400, 14:48:14.851, 14, 0.00, 0.46, 100, -0.500, 0.300, -72.400, 370, --, 100, 18, 22200, -19335, 5282, 5282, 22, 14, 1570654094.851, 58, 100, 1024, 1024, 1024, 1024, 0, , 3671, 3682, 3683, 3703, 3726, 3698, 0, 1, 7505, -89.900, 0.000, -73.700, 0.000, 0.000, -1.100, 0.0, , , , , , , 95, , , 21, 21, 21, ,0.0036100
 40.0403232, -105.5691735, 1.600, 14:48:14.951, 14, 0.00, 0.46, 100, -0.500, 0.300, -72.300, 370, --, 100, 18, 22200, -19335, 5282, 5282, 22, 14, 1570654094.951, 58, 100, 1024, 1024, 1024, 1024, 0, , 3671, 3682, 3683, 3703, 3726, 3698, 0, 1, 7605, -89.900, 0.000, -73.700, 0.000, 0.000, -1.300, 0.0, , , , , , , 95, , , 21, 21, 21, ,0.0036100
 40.0403232, -105.5691736, 1.700, 14:48:15.051, 14, 0.00, 0.46, 100, -0.400, 0.500, -72.200, 370, --, 100, 18, 22200, -19335, 5282, 5282, 22, 14, 1570654095.051, 58, 100, 1024, 1024, 1024, 1024, 0, , 3671, 3682, 3683, 3703, 3726, 3698, 0, 1, 7705, -89.900, 0.000, -73.700, 0.000, 0.000, -1.500, 0.0, , , , , , , 95, , , 21, 21, 21, ,0.0036100
 40.0403232, -105.5691737, 1.900, 14:48:15.151, 15, 0.00, 0.46, 100, -0.300, 0.700, -72.100, 370, --, 100, 18, 22200, -19335, 5282, 5282, 22, 14, 1570654095.152, 33, 100, 1024, 1024, 1024, 1024, 0, , 3671, 3682, 3683, 3703, 3726, 3698, 0, 1, 7806, -89.900, 0.000, -73.700, 0.000, 0.000, -1.700, 0.0, , , , , , , 95, , , 21, 21, 21, ,0.0036100
 40.0403233, -105.5691738, 2.100, 14:48:15.251, 15, 0.00, 0.46, 100, -0.100, 1.000, -72.000, 370, --, 100, 18, 22200, -19335, 5282, 5282, 22, 14, 1570654095.251, 36, 100, 1024, 1024, 1024, 1024, 0, , 3671, 3682, 3683, 3703, 3726, 3698, 0, 1, 7905, -89.900, 0.000, -73.700, 0.000, 0.000, -1.900, 0.0, , , , , , , 95, , , 21, 21, 21, ,0.0036100
 40.0403233, -105.5691739, 2.300, 14:48:15.351, 14, 0.00, 0.46, 100, 0.100, 1.300, -71.900, 370, --, 100, 18, 22200, -19335, 5282, 5282, 22, 14, 1570654095.352, 22, 100, 1024, 1024, 1024, 1024, 0, , 3671, 3682, 3683, 3703, 3726, 3698, 0, 1, 8006, -89.900, 0.000, -73.700, 0.000, 0.000, -2.100, 0.0, , , , , , , 95, , , 21, 21, 21, ,0.0036100
 40.0403232, -105.5691740, 2.500, 14:48:15.451, 14, 0.00, 0.45, 100, 0.400, 1.600, -71.800, 370, --, 100, 18, 22200, -19335, 5282, 5282, 22, 14, 1570654095.452, 11, 100, 1024, 1024, 1024, 1024, 0, , 3671, 3682, 3683, 3703, 3726, 3698, 0, 1, 8106, -89.900, 0.000, -73.600, 0.000, 0.000, -2.300, 0.0, , , , , , , 95, , , 21, 21, 21, ,0.0036100
 40.0403232, -105.5691741, 2.700, 14:48:15.551, 15, 0.00, 0.44, 100, 0.700, 1.600, -71.500, 370, --, 100, 18, 22200, -19335, 5282, 5282, 22, 14, 1570654095.552, 9, 100, 1024, 1024, 1024, 1024, 0, , 3671, 3682, 3683, 3703, 3726, 3698, 0, 1, 8206, -89.900, 0.000, -73.600, 0.000, 0.000, -2.500, 0.0, , , , , , , 95, , , 21, 21, 21, ,0.0036100
 40.0403232, -105.5691741, 3.000, 14:48:15.651, 15, 0.00, 0.45, 100, 0.600, 1.200, -71.400, 370, --, 100, 18, 22200, -19335, 5282, 5282, 22, 14, 1570654095.652, 13, 100, 1024, 1024, 1024, 1024, 0, , 3671, 3682, 3683, 3703, 3726, 3698, 0, 1, 8306, -89.900, 0.000, -73.600, 0.000, 0.000, -2.700, 0.0, , , , , , , 95, , , 21, 21, 21, ,0.0036100
 40.0403233, -105.5691741, 3.300, 14:48:15.751, 15, 0.00, 0.46, 100, -0.200, 0.200, -71.500, 370, --, 100, 18, 22200, -19335, 5282, 5282, 22, 14, 1570654095.752, 8, 100, 1024, 1024, 1024, 1024, 0, , 3671, 3682, 3683, 3703, 3726, 3698, 0, 1, 8406, -90.000, 0.000, -73.600, 0.000, 0.000, -2.900, 0.0, , , , , , , 95, , , 21, 21, 21, ,0.0036100
 40.0403234, -105.5691741, 3.600, 14:48:15.851, 15, 0.00, 0.47, 100, -1.200, -0.700, -71.800, 370, --, 100, 18, 21867, -20343, 5282, 5282, 22, 14, 1570654095.852, 8, 100, 1024, 1024, 1024, 1024, 0, , 3671, 3682, 3683, 3703, 3726, 3698, 0, 1, 8506, -90.000, 0.000, -73.600, 0.000, 0.000, -3.100, 0.0, , , , , , , 95, , , 21, 21, 21, ,0.0036100
 40.0403234, -105.5691742, 3.900, 14:48:15.951, 15, 0.00, 0.47, 100, -1.500, -1.000, -72.100, 370, --, 100, 18, 21867, -20343, 5282, 5282, 22, 14, 1570654095.951, 7, 100, 1024, 1024, 1024, 1024, 0, , 3671, 3682, 3683, 3703, 3726, 3698, 0, 1, 8606, -89.900, 0.000, -73.500, 0.000, 0.000, -3.200, 0.0, , , , , , , 95, , , 21, 21, 21, ,0.0036100
 40.0403235, -105.5691744, 4.300, 14:48:16.051, 15, 0.00, 0.47, 100, -1.500, -0.300, -72.400, 370, --, 100, 18, 21867, -20343, 5282, 5282, 22, 14, 1570654096.052, 8, 100, 1024, 1024, 1024, 1024, 0, , 3671, 3682, 3683, 3703, 3726, 3698, 0, 1, 8706, -89.900, 0.000, -73.500, 0.000, 0.000, -3.300, 0.0, , , , , , , 95, , , 21, 21, 21, ,0.0036100
 40.0403235, -105.5691747, 4.600, 14:48:16.151, 15, 0.00, 0.47, 100, -1.000, 0.800, -72.600, 370, --, 100, 18, 21867, -20343, 5282, 5282, 22, 14, 1570654096.151, 8, 100, 1024, 1024, 1024, 1024, 0, , 3671, 3682, 3683, 3703, 3726, 3698, 0, 1, 8806, -89.900, 0.000, -73.500, 0.000, 0.000, -3.400, 0.0, , , , , , , 95, , , 21, 21, 21, ,0.0036100
 40.0403235, -105.5691747, 4.600, 14:48:16.251, 15, 0.00, 0.47, 100, -1.000, 0.800, -72.600, 370, --, 100, 18, 21867, -20343, 5282, 5282, 22, 14, 1570654096.251, 107, 100, 1024, 1024, 1024, 1024, 0, , 3671, 3682, 3683, 3703, 3726, 3698, 0, 1, 8905, -89.900, 0.000, -73.500, 0.000, 0.000, -3.400, 0.0, , , , , , , 95, , , 21, 21, 21, ,0.0036100
 40.0403235, -105.5691748, 5.000, 14:48:16.351, 15, 0.00, 0.47, 100, -0.200, 1.700, -72.700, 370, --, 100, 18, 21867, -20343, 5282, 5282, 22, 14, 1570654096.352, 84, 100, 1024, 1024, 1024, 1024, 0, , 3671, 3682, 3683, 3703, 3726, 3698, 0, 1, 9006, -89.900, 0.000, -73.500, 0.000, 0.000, -3.500, 0.0, , , , , , , 95, , , 21, 21, 21, ,0.0036100
 40.0403235, -105.5691749, 5.400, 14:48:16.451, 15, 0.00, 0.47, 100, 0.200, 2.000, -72.700, 370, --, 100, 18, 21867, -20343, 5176, 5282, 22, 14, 1570654096.452, 96, 100, 1024, 1024, 1024, 1024, 0, , 3594, 3626, 3629, 3679, 3692, 3596, 0, 1, 9106, -89.900, 0.000, -73.500, 0.000, 0.000, -3.500, 0.0, , , , , , , 95, , , 21, 21, 21, ,0.0036100
 40.0403235, -105.5691750, 5.800, 14:48:16.551, 15, 0.00, 0.47, 100, 0.400, 2.000, -72.700, 370, --, 100, 18, 21867, -20343, 5176, 5282, 22, 14, 1570654096.552, 69, 100, 1024, 1024, 1024, 1024, 0, , 3594, 3626, 3629, 3679, 3692, 3596, 0, 1, 9206, -89.900, 0.000, -73.500, 0.000, 0.000, -3.400, 0.0, , , , , , , 95, , , 21, 21, 21, ,0.0036100
 40.0403234, -105.5691750, 6.100, 14:48:16.651, 15, 0.00, 0.46, 100, 0.500, 1.900, -72.500, 370, --, 100, 18, 21867, -20343, 5176, 5282, 22, 14, 1570654096.652, 70, 100, 1024, 1024, 1024, 1024, 0, , 3594, 3626, 3629, 3679, 3692, 3596, 0, 1, 9306, -89.900, 0.000, -73.400, 0.000, 0.000, -3.300, 0.0, , , , , , , 95, , , 21, 21, 21, ,0.0036100
 40.0403234, -105.5691751, 6.500, 14:48:16.751, 15, 0.00, 0.46, 100, 0.600, 1.600, -72.400, 370, --, 100, 18, 21867, -20343, 5176, 5282, 22, 14, 1570654096.752, 53, 100, 1024, 1024, 1024, 1024, 0, , 3594, 3626, 3629, 3679, 3692, 3596, 0, 1, 9406, -89.900, 0.000, -73.400, 0.000, 0.000, -3.300, 0.0, , , , , , , 95, , , 21, 21, 21, ,0.0036100
 40.0403234, -105.5691751, 6.800, 14:48:16.851, 15, 0.00, 0.46, 98, 0.400, 1.400, -72.400, 370, --, 100, 18, 21867, -20343, 5176, 5282, 22, 14, 1570654096.851, 68, 100, 1024, 1024, 1024, 1024, 0, , 3594, 3626, 3629, 3679, 3692, 3596, 0, 1, 9506, -89.900, 0.000, -73.400, 0.000, 0.000, -3.300, 0.0, , , , , , , 95, , , 21, 21, 21, ,0.0036100
 40.0403234, -105.5691752, 7.100, 14:48:16.951, 15, 0.00, 0.46, 98, 0.000, 1.100, -72.300, 370, --, 100, 18, 21867, -20343, 5176, 5282, 22, 14, 1570654096.952, 69, 100, 1024, 1024, 1024, 1024, 0, , 3594, 3626, 3629, 3679, 3692, 3596, 0, 1, 9606, -90.000, 0.000, -73.400, 0.000, 0.000, -3.200, 0.0, , , , , , , 95, , , 21, 21, 21, ,0.0036100
 40.0403233, -105.5691752, 7.800, 14:48:17.051, 15, 0.00, 0.45, 98, -0.200, 1.000, -72.300, 370, --, 100, 18, 21867, -20343, 5176, 5282, 22, 14, 1570654097.051, 67, 100, 1024, 1024, 1024, 1024, 0, , 3594, 3626, 3629, 3679, 3692, 3596, 0, 1, 9706, -89.900, 0.000, -73.400, 0.000, 0.000, -3.200, 0.0, , , , , , , 95, , , 21, 21, 21, ,0.0036100
 40.0403233, -105.5691752, 8.100, 14:48:17.153, 15, 0.00, 0.44, 98, 0.200, 1.100, -72.300, 370, --, 100, 18, 21867, -20343, 5176, 5282, 22, 14, 1570654097.153, 69, 100, 1024, 1024, 1024, 1024, 0, , 3594, 3626, 3629, 3679, 3692, 3596, 0, 1, 9807, -89.900, 0.000, -73.400, 0.000, 0.000, -3.200, 0.0, , , , , , , 95, , , 21, 21, 21, ,0.0036100
 40.0403232, -105.5691752, 8.500, 14:48:17.251, 15, 0.00, 0.44, 98, 0.600, 1.200, -72.300, 370, --, 100, 18, 21867, -20343, 5176, 5282, 22, 14, 1570654097.251, 57, 100, 1024, 1024, 1024, 1024, 0, , 3594, 3626, 3629, 3679, 3692, 3596, 0, 1, 9905, -89.900, 0.000, -73.400, 0.000, 0.000, -3.200, 0.0, , , , , , , 95, , , 21, 21, 21, ,0.0036100
 40.0403231, -105.5691752, 8.800, 14:48:17.353, 15, 0.00, 0.43, 98, 0.900, 1.200, -72.300, 370, --, 100, 18, 21079, -24056, 5176, 5282, 22, 14, 1570654097.353, 38, 100, 1024, 1024, 1024, 1024, 0, , 3579, 3576, 3524, 3526, 3577, 3494, 0, 1, 10007, -89.900, 0.000, -73.400, 0.000, 0.000, -3.300, 0.0, , , , , , , 95, , , 21, 21, 21, ,0.0036100
 40.0403231, -105.5691752, 9.200, 14:48:17.453, 15, 0.00, 0.42, 98, 1.000, 1.200, -72.200, 370, --, 100, 18, 21079, -24056, 5176, 5282, 22, 14, 1570654097.453, 39, 100, 1024, 1024, 1024, 1024, 0, , 3579, 3576, 3524, 3526, 3577, 3494, 0, 1, 10107, -89.900, 0.000, -73.400, 0.000, 0.000, -3.200, 0.0, , , , , , , 95, , , 21, 21, 21, ,0.0036100
 40.0403230, -105.5691752, 9.500, 14:48:17.553, 15, 0.00, 0.42, 98, 0.600, 1.000, -72.200, 370, --, 100, 18, 21079, -24056, 5176, 5282, 22, 14, 1570654097.553, 17, 100, 1024, 1024, 1024, 1024, 0, , 3579, 3576, 3524, 3526, 3577, 3494, 0, 1, 10207, -89.900, 0.000, -73.400, 0.000, 0.000, -3.100, 0.0, , , , , , , 95, , , 21, 21, 21, ,0.0036100
 40.0403230, -105.5691751, 9.800, 14:48:17.653, 15, 0.10, 0.42, 98, 0.700, 1.100, -72.100, 370, --, 100, 18, 21079, -24056, 5176, 5282, 22, 14, 1570654097.653, 21, 100, 1024, 1024, 1024, 1024, 0, , 3579, 3576, 3524, 3526, 3577, 3494, 0, 1, 10307, -89.900, 0.000, -73.400, 0.000, 0.100, -3.000, 0.0, , , , , , , 95, , , 21, 21, 21, ,0.0036100
 40.0403230, -105.5691751, 9.800, 14:48:17.753, 15, 0.10, 0.42, 98, 0.700, 1.100, -72.100, 370, --, 100, 18, 21079, -24056, 5176, 5282, 22, 14, 1570654097.754, 122, 100, 1024, 1024, 1024, 1024, 0, , 3579, 3576, 3524, 3526, 3577, 3494, 0, 1, 10408, -89.900, 0.000, -73.400, 0.000, 0.100, -3.000, 0.0, , , , , , , 95, , , 21, 21, 21, ,0.0036100
 40.0403230, -105.5691749, 10.500, 14:48:17.852, 15, 0.10, 0.41, 98, 0.400, 0.800, -72.400, 370, --, 100, 18, 21079, -24056, 5176, 5282, 22, 14, 1570654097.853, 24, 100, 1024, 1024, 1024, 1024, 0, , 3579, 3576, 3524, 3526, 3577, 3494, 0, 1, 10507, -89.900, 0.000, -73.400, 0.000, 0.100, -3.100, 0.0, , , , , , , 95, , , 21, 21, 21, ,0.0036100
 40.0403230, -105.5691749, 10.500, 14:48:17.953, 15, 0.10, 0.41, 98, 0.400, 0.800, -72.400, 370, --, 99, 18, 21079, -24056, 5176, 5282, 22, 14, 1570654097.953, 124, 99, 1024, 1024, 1024, 1024, 0, , 3579, 3576, 3524, 3526, 3577, 3494, 0, 1, 10607, -90.000, 0.000, -73.400, 0.000, 0.100, -3.100, 0.0, , , , , , , 95, , , 21, 21, 21, ,0.0036100
 40.0403230, -105.5691747, 11.200, 14:48:18.053, 15, 0.10, 0.42, 98, -1.200, 0.400, -72.400, 370, --, 99, 18, 21079, -24056, 5176, 5282, 22, 14, 1570654098.053, 19, 99, 1024, 1024, 1024, 1024, 0, , 3579, 3576, 3524, 3526, 3577, 3494, 0, 1, 10707, -90.000, 0.000, -73.400, 0.000, 0.100, -3.100, 0.0, , , , , , , 95, , , 21, 21, 21, ,0.0036100
 40.0403231, -105.5691745, 11.500, 14:48:18.153, 15, 0.10, 0.42, 98, -1.400, 0.400, -72.400, 370, --, 99, 18, 21079, -24056, 5176, 5282, 22, 14, 1570654098.153, 16, 99, 1024, 1024, 1024, 1024, 0, , 3579, 3576, 3524, 3526, 3577, 3494, 0, 1, 10807, -90.000, 0.000, -73.400, 0.000, 0.100, -3.000, 0.0, , , , , , , 95, , , 21, 21, 21, ,0.0036100
 40.0403231, -105.5691745, 11.500, 14:48:18.251, 15, 0.10, 0.42, 98, -1.400, 0.400, -72.400, 370, --, 99, 18, 21079, -24056, 5176, 5282, 22, 14, 1570654098.251, 115, 99, 1024, 1024, 1024, 1024, 0, , 3579, 3576, 3524, 3526, 3577, 3494, 0, 1, 10905, -90.000, 0.000, -73.400, 0.000, 0.100, -3.000, 0.0, , , , , , , 95, , , 21, 21, 21, ,0.0036100
 40.0403231, -105.5691743, 12.100, 14:48:18.353, 15, 0.10, 0.43, 98, -1.200, 0.000, -72.300, 370, --, 97, 18, 21705, -21782, 5176, 5282, 22, 14, 1570654098.353, 3, 97, 1024, 1024, 1024, 1024, 0, , 3600, 3607, 3608, 3639, 3651, 3576, 0, 1, 11007, -90.000, 0.000, -73.400, 0.000, 0.100, -2.900, 0.0, , , , , , , 95, , , 21, 21, 21, ,0.0036100
 40.0403231, -105.5691742, 12.400, 14:48:18.453, 15, 0.10, 0.43, 98, -1.300, -0.100, -72.200, 370, --, 97, 18, 21705, -21782, 5176, 5282, 22, 14, 1570654098.453, 8, 97, 1024, 1024, 1024, 1024, 0, , 3600, 3607, 3608, 3639, 3651, 3576, 0, 1, 11107, -89.900, 0.000, -73.400, 0.000, 0.100, -2.900, 0.0, , , , , , , 95, , , 21, 21, 21, ,0.0036100
 40.0403231, -105.5691741, 12.700, 14:48:18.553, 15, 0.10, 0.43, 98, -1.100, 0.100, -72.200, 370, --, 97, 18, 21705, -21782, 5176, 5282, 22, 14, 1570654098.553, 9, 97, 1024, 1024, 1024, 1024, 0, , 3600, 3607, 3608, 3639, 3651, 3576, 0, 1, 11207, -89.900, 0.000, -73.400, 0.000, 0.100, -2.900, 0.0, , , , , , , 95, , , 21, 21, 21, ,0.0036100
 40.0403231, -105.5691741, 12.700, 14:48:18.653, 15, 0.10, 0.43, 98, -1.100, 0.100, -72.200, 370, --, 97, 18, 21705, -21782, 5176, 5282, 22, 14, 1570654098.653, 109, 97, 1024, 1024, 1024, 1024, 0, , 3600, 3607, 3608, 3639, 3651, 3576, 0, 1, 11307, -89.900, 0.000, -73.400, 0.000, 0.100, -2.900, 0.0, , , , , , , 95, , , 21, 21, 21, ,0.0036100
 40.0403231, -105.5691741, 13.000, 14:48:18.753, 15, 0.10, 0.44, 98, -1.200, 0.200, -72.100, 370, --, 97, 18, 21705, -21782, 5176, 5282, 22, 14, 1570654098.753, 80, 97, 1024, 1024, 1024, 1024, 0, , 3600, 3607, 3608, 3639, 3651, 3576, 0, 1, 11407, -89.900, 0.000, -73.400, 0.000, 0.100, -2.900, 0.0, , , , , , , 95, , , 21, 21, 21, ,0.0036100
 40.0403231, -105.5691740, 13.300, 14:48:18.853, 15, 0.10, 0.44, 98, -1.000, 0.600, -72.200, 370, --, 97, 18, 21705, -21782, 5176, 5282, 22, 14, 1570654098.853, 83, 97, 1024, 1024, 1024, 1024, 0, , 3600, 3607, 3608, 3639, 3651, 3576, 0, 1, 11507, -89.900, 0.000, -73.400, 0.000, 0.100, -3.000, 0.0, , , , , , , 95, , , 21, 21, 21, ,0.0036100
 40.0403231, -105.5691738, 13.600, 14:48:18.953, 15, 0.10, 0.45, 98, -1.300, 0.900, -72.200, 370, --, 92, 18, 21705, -21782, 5176, 5282, 22, 14, 1570654098.953, 88, 92, 1024, 1024, 1024, 1024, 0, , 3600, 3607, 3608, 3639, 3651, 3576, 0, 1, 11607, -89.900, 0.000, -73.400, 0.000, 0.100, -2.900, 0.0, , , , , , , 95, , , 21, 21, 21, ,0.0036100
 40.0403232, -105.5691737, 14.000, 14:48:19.053, 15, 0.10, 0.45, 98, -1.800, 0.500, -72.100, 370, --, 92, 18, 21705, -21782, 5176, 5282, 22, 14, 1570654099.053, 88, 92, 1024, 1024, 1024, 1024, 0, , 3600, 3607, 3608, 3639, 3651, 3576, 0, 1, 11707, -90.000, 0.000, -73.400, 0.000, 0.100, -2.900, 0.0, , , , , , , 95, , , 21, 21, 21, ,0.0036100
 40.0403232, -105.5691735, 14.300, 14:48:19.152, 15, 0.10, 0.46, 98, -2.000, -0.400, -72.100, 370, --, 92, 18, 21705, -21782, 5176, 5282, 22, 14, 1570654099.152, 86, 92, 1024, 1024, 1024, 1024, 0, , 3600, 3607, 3608, 3639, 3651, 3576, 0, 1, 11806, -90.000, 0.000, -73.400, 0.000, 0.100, -2.900, 0.0, , , , , , , 95, , , 21, 21, 21, ,0.0036100
 40.0403232, -105.5691732, 14.600, 14:48:19.251, 15, 0.10, 0.47, 98, -2.100, -1.500, -72.100, 370, --, 92, 18, 21705, -21782, 5176, 5282, 22, 14, 1570654099.251, 59, 92, 1024, 1024, 1024, 1024, 0, , 3600, 3607, 3608, 3639, 3651, 3576, 0, 1, 11905, -90.000, 0.000, -73.400, 0.000, 0.100, -2.800, 0.0, , , , , , , 95, , , 21, 21, 21, ,0.0036100
 40.0403233, -105.5691729, 15.100, 14:48:19.352, 15, 0.10, 0.49, 98, -1.900, -1.900, -72.200, 370, --, 92, 18, 21624, -21561, 5176, 5282, 22, 14, 1570654099.352, 52, 92, 1024, 1024, 1024, 1024, 0, , 3584, 3587, 3604, 3615, 3658, 3580, 0, 1, 12006, -90.000, 0.000, -73.400, 0.000, 0.100, -2.700, 0.0, , , , , , , 95, , , 21, 21, 21, ,0.0036100
 40.0403233, -105.5691727, 15.400, 14:48:19.452, 15, 0.10, 0.50, 98, -1.700, -1.900, -72.300, 370, --, 94, 18, 21624, -21561, 5176, 5282, 22, 14, 1570654099.452, 67, 94, 1024, 1024, 1024, 1024, 0, , 3584, 3587, 3604, 3615, 3658, 3580, 0, 1, 12106, -89.900, 0.000, -73.400, 0.000, 0.100, -2.600, 0.0, , , , , , , 95, , , 21, 21, 21, ,0.0036100
 40.0403233, -105.5691726, 15.600, 14:48:19.552, 15, 0.10, 0.50, 98, -1.500, -2.100, -72.300, 370, --, 94, 18, 21624, -21561, 5176, 5282, 22, 14, 1570654099.552, 57, 94, 1024, 1024, 1024, 1024, 0, , 3584, 3587, 3604, 3615, 3658, 3580, 0, 1, 12206, -89.900, 0.000, -73.400, 0.000, 0.100, -2.600, 0.0, , , , , , , 95, , , 21, 21, 21, ,0.0036100
 40.0403232, -105.5691726, 15.900, 14:48:19.652, 15, 0.00, 0.50, 98, -1.100, -2.000, -72.400, 370, --, 94, 18, 21624, -21561, 5176, 5282, 22, 14, 1570654099.652, 45, 94, 1024, 1024, 1024, 1024, 0, , 3584, 3587, 3604, 3615, 3658, 3580, 0, 1, 12306, -89.900, 0.000, -73.400, 0.000, 0.000, -2.800, 0.0, , , , , , , 95, , , 21, 21, 21, ,0.0036100
 40.0403232, -105.5691725, 16.200, 14:48:19.752, 15, 0.00, 0.49, 98, -0.400, -1.500, -72.500, 370, --, 94, 18, 21624, -21561, 5176, 5282, 22, 14, 1570654099.752, 41, 94, 1024, 1024, 1024, 1024, 0, , 3584, 3587, 3604, 3615, 3658, 3580, 0, 1, 12406, -89.900, 0.000, -73.400, 0.000, 0.000, -2.900, 0.0, , , , , , , 95, , , 21, 21, 21, ,0.0036100
 40.0403232, -105.5691725, 16.500, 14:48:19.852, 15, 0.00, 0.50, 98, -0.200, -1.300, -72.600, 370, --, 94, 18, 21624, -21561, 5176, 5282, 22, 14, 1570654099.852, 37, 94, 1024, 1024, 1024, 1024, 0, , 3584, 3587, 3604, 3615, 3658, 3580, 0, 1, 12506, -89.900, 0.000, -73.400, 0.000, 0.000, -2.900, 0.0, , , , , , , 95, , , 21, 21, 21, ,0.0036100
 40.0403232, -105.5691724, 16.800, 14:48:19.952, 15, 0.00, 0.50, 98, -0.400, -1.000, -72.600, 370, --, 91, 18, 21624, -21561, 5176, 5282, 22, 14, 1570654099.952, 27, 91, 1024, 1024, 1024, 1024, 0, , 3584, 3587, 3604, 3615, 3658, 3580, 0, 1, 12606, -89.900, 0.000, -73.400, 0.000, 0.000, -2.900, 0.0, , , , , , , 95, , , 21, 21, 21, ,0.0036100
 40.0403232, -105.5691723, 17.100, 14:48:20.052, 15, 0.00, 0.51, 98, -0.900, -1.100, -72.600, 370, --, 91, 18, 21624, -21561, 5176, 5282, 22, 14, 1570654100.052, 34, 91, 1024, 1024, 1024, 1024, 0, , 3584, 3587, 3604, 3615, 3658, 3580, 0, 1, 12706, -89.900, 0.000, -73.400, 0.000, 0.000, -2.800, 0.0, , , , , , , 95, , , 21, 21, 21, ,0.0036100
 40.0403232, -105.5691723, 17.100, 14:48:20.152, 15, 0.00, 0.51, 98, -0.900, -1.100, -72.600, 370, --, 91, 18, 21624, -21561, 5176, 5282, 22, 14, 1570654100.152, 134, 91, 1024, 1024, 1024, 1024, 0, , 3584, 3587, 3604, 3615, 3658, 3580, 0, 1, 12806, -90.000, 0.000, -73.400, 0.000, 0.000, -2.800, 0.0, , , , , , , 95, , , 21, 21, 21, ,0.0036100
 40.0403233, -105.5691721, 17.700, 14:48:20.251, 15, 0.00, 0.53, 98, -1.500, -1.700, -72.600, 370, --, 91, 18, 21624, -21561, 5176, 5282, 22, 14, 1570654100.251, 3, 91, 1024, 1024, 1024, 1024, 0, , 3584, 3587, 3604, 3615, 3658, 3580, 0, 1, 12905, -90.000, 0.000, -73.400, 0.000, 0.000, -2.800, 0.0, , , , , , , 95, , , 21, 21, 21, ,0.0036100
 40.0403234, -105.5691720, 18.000, 14:48:20.352, 15, 0.00, 0.54, 98, -1.600, -1.900, -72.600, 370, --, 93, 18, 21487, -22874, 5176, 5282, 22, 14, 1570654100.352, 10, 93, 1024, 1024, 1024, 1024, 0, , 3557, 3551, 3587, 3602, 3628, 3541, 0, 1, 13006, -90.000, 0.000, -73.400, 0.000, 0.000, -2.900, 0.0, , , , , , , 95, , , 21, 21, 21, ,0.0036100
 40.0403235, -105.5691719, 18.300, 14:48:20.454, 15, 0.00, 0.55, 98, -1.700, -2.100, -72.400, 370, --, 93, 18, 21487, -22874, 5176, 5282, 22, 14, 1570654100.454, 2, 93, 1024, 1024, 1024, 1024, 0, , 3557, 3551, 3587, 3602, 3628, 3541, 0, 1, 13108, -90.000, 0.000, -73.400, 0.000, 0.000, -2.800, 0.0, , , , , , , 95, , , 21, 21, 21, ,0.0036100
 40.0403235, -105.5691719, 18.300, 14:48:20.552, 15, 0.00, 0.55, 98, -1.700, -2.100, -72.400, 370, --, 93, 18, 21487, -22874, 5176, 5282, 22, 14, 1570654100.552, 99, 93, 1024, 1024, 1024, 1024, 0, , 3557, 3551, 3587, 3602, 3628, 3541, 0, 1, 13206, -90.000, 0.000, -73.400, 0.000, 0.000, -2.800, 0.0, , , , , , , 95, , , 21, 21, 21, ,0.0036100
 40.0403235, -105.5691719, 18.600, 14:48:20.652, 15, 0.00, 0.55, 98, -1.900, -2.000, -72.300, 370, --, 93, 18, 21487, -22874, 5176, 5282, 22, 14, 1570654100.652, 97, 93, 1024, 1024, 1024, 1024, 0, , 3557, 3551, 3587, 3602, 3628, 3541, 0, 1, 13306, -89.900, 0.000, -73.400, 0.000, 0.000, -2.800, 0.0, , , , , , , 95, , , 21, 21, 21, ,0.0036100
 40.0403235, -105.5691719, 18.600, 14:48:20.752, 15, 0.00, 0.55, 98, -1.900, -2.000, -72.300, 370, --, 93, 18, 21487, -22874, 5176, 5282, 22, 14, 1570654100.752, 197, 93, 1024, 1024, 1024, 1024, 0, , 3557, 3551, 3587, 3602, 3628, 3541, 0, 1, 13406, -89.900, 0.000, -73.400, 0.000, 0.000, -2.800, 0.0, , , , , , , 95, , , 21, 21, 21, ,0.0036100
 40.0403237, -105.5691719, 19.100, 14:48:20.852, 15, 0.00, 0.57, 98, -1.800, -0.800, -71.900, 370, --, 93, 18, 21487, -22874, 5176, 5282, 22, 14, 1570654100.852, 97, 93, 1024, 1024, 1024, 1024, 0, , 3557, 3551, 3587, 3602, 3628, 3541, 0, 1, 13506, -89.900, 0.000, -73.400, 0.000, 0.000, -2.900, 0.0, , , , , , , 95, , , 21, 21, 21, ,0.0036100
 40.0403237, -105.5691719, 19.400, 14:48:20.952, 15, 0.00, 0.57, 98, -1.900, -0.400, -71.800, 370, --, 94, 18, 21487, -22874, 5176, 5282, 22, 14, 1570654100.952, 80, 94, 1024, 1024, 1024, 1024, 0, , 3557, 3551, 3587, 3602, 3628, 3541, 0, 1, 13606, -89.900, 0.000, -73.400, 0.000, 0.000, -2.900, 0.0, , , , , , , 95, , , 21, 21, 21, ,0.0036100
 40.0403237, -105.5691719, 19.800, 14:48:21.052, 15, 0.00, 0.57, 98, -1.900, -0.300, -71.800, 370, --, 94, 18, 21487, -22874, 5176, 5282, 22, 14, 1570654101.052, 65, 94, 1024, 1024, 1024, 1024, 0, , 3557, 3551, 3587, 3602, 3628, 3541, 0, 1, 13707, -89.900, 0.000, -73.400, 0.000, 0.000, -3.100, 0.0, , , , , , , 95, , , 21, 21, 21, ,0.0036100
 40.0403238, -105.5691720, 20.100, 14:48:21.152, 15, 0.00, 0.57, 98, -1.800, -0.400, -71.800, 370, --, 94, 18, 21487, -22874, 5176, 5282, 22, 14, 1570654101.152, 68, 94, 1024, 1024, 1024, 1024, 0, , 3557, 3551, 3587, 3602, 3628, 3541, 0, 1, 13806, -89.900, 0.000, -73.400, 0.000, 0.000, -3.000, 0.0, , , , , , , 95, , , 21, 21, 21, ,0.0036100
 40.0403238, -105.5691721, 20.400, 14:48:21.251, 15, 0.00, 0.57, 98, -1.600, -0.700, -71.900, 370, --, 94, 18, 21487, -22874, 5176, 5282, 22, 14, 1570654101.251, 66, 94, 1024, 1024, 1024, 1024, 0, , 3557, 3551, 3587, 3602, 3628, 3541, 0, 1, 13905, -89.900, 0.000, -73.400, 0.000, 0.000, -3.000, 0.0, , , , , , , 95, , , 21, 21, 21, ,0.0036100
 40.0403239, -105.5691723, 21.000, 14:48:21.352, 15, 0.00, 0.58, 98, -1.100, -1.000, -72.200, 370, --, 94, 18, 21421, -22966, 5176, 5282, 22, 14, 1570654101.352, 60, 94, 1024, 1024, 1024, 1024, 0, , 3557, 3551, 3587, 3602, 3628, 3541, 0, 1, 14006, -89.900, 0.000, -73.400, 0.000, 0.000, -2.900, 0.0, , , , , , , 95, , , 21, 21, 21, ,0.0036100
 40.0403240, -105.5691724, 21.300, 14:48:21.452, 15, 0.00, 0.58, 98, -0.700, -0.400, -72.400, 370, --, 95, 18, 21421, -22966, 5176, 5282, 22, 14, 1570654101.452, 64, 95, 1024, 1024, 1024, 1024, 0, , 3557, 3551, 3587, 3602, 3628, 3541, 0, 1, 14106, -89.900, 0.000, -73.300, 0.000, 0.000, -2.900, 0.0, , , , , , , 95, , , 21, 21, 21, ,0.0036100
 40.0403240, -105.5691724, 21.300, 14:48:21.552, 15, 0.00, 0.58, 98, -0.700, -0.400, -72.400, 370, --, 95, 18, 21421, -22966, 5176, 5282, 22, 14, 1570654101.552, 164, 95, 1024, 1024, 1024, 1024, 0, , 3557, 3551, 3587, 3602, 3628, 3541, 0, 1, 14206, -89.900, 0.000, -73.300, 0.000, 0.000, -2.900, 0.0, , , , , , , 95, , , 21, 21, 21, ,0.0036100
 40.0403241, -105.5691726, 21.900, 14:48:21.652, 15, 0.00, 0.58, 98, -1.300, 1.400, -72.200, 370, --, 95, 18, 21421, -22966, 5176, 5282, 22, 14, 1570654101.652, 30, 95, 1024, 1024, 1024, 1024, 0, , 3557, 3551, 3587, 3602, 3628, 3541, 0, 1, 14306, -89.900, 0.000, -73.300, 0.000, 0.000, -2.900, 0.0, , , , , , , 95, , , 21, 21, 21, ,0.0036100
 40.0403242, -105.5691727, 22.200, 14:48:21.752, 15, 0.00, 0.59, 98, -1.600, 1.200, -72.100, 370, --, 95, 18, 21421, -22966, 5176, 5282, 22, 14, 1570654101.752, 46, 95, 1024, 1024, 1024, 1024, 0, , 3557, 3551, 3587, 3602, 3628, 3541, 0, 1, 14406, -89.900, 0.000, -73.300, 0.000, 0.000, -2.800, 0.0, , , , , , , 95, , , 21, 21, 21, ,0.0036100
 40.0403242, -105.5691727, 22.500, 14:48:21.852, 15, 0.00, 0.59, 98, -2.000, 0.400, -72.100, 370, --, 95, 18, 21421, -22966, 5176, 5282, 22, 14, 1570654101.852, 17, 95, 1024, 1024, 1024, 1024, 0, , 3560, 3547, 3570, 3568, 3619, 3539, 0, 1, 14506, -90.000, 0.000, -73.300, 0.000, 0.000, -2.900, 0.0, , , , , , , 95, , , 21, 21, 21, ,0.0036100
 40.0403243, -105.5691728, 22.800, 14:48:21.952, 15, 0.00, 0.60, 98, -1.900, -0.100, -72.100, 370, --, 98, 18, 21421, -22966, 5176, 5282, 22, 14, 1570654101.952, 31, 98, 1024, 1024, 1024, 1024, 0, , 3560, 3547, 3570, 3568, 3619, 3539, 0, 1, 14606, -90.000, 0.000, -73.300, 0.000, 0.000, -3.000, 0.0, , , , , , , 95, , , 21, 21, 21, ,0.0036100
 40.0403244, -105.5691728, 23.100, 14:48:22.052, 15, 0.00, 0.61, 98, -1.700, -0.100, -72.200, 370, --, 98, 18, 21421, -22966, 5176, 5282, 22, 14, 1570654102.052, 15, 98, 1024, 1024, 1024, 1024, 0, , 3560, 3547, 3570, 3568, 3619, 3539, 0, 1, 14706, -89.900, 0.000, -73.300, 0.000, 0.000, -2.900, 0.0, , , , , , , 95, , , 21, 21, 21, ,0.0036100
 40.0403245, -105.5691729, 23.400, 14:48:22.152, 15, 0.00, 0.61, 98, -2.000, 0.500, -72.300, 370, --, 98, 18, 21421, -22966, 5176, 5282, 22, 14, 1570654102.152, 9, 98, 1024, 1024, 1024, 1024, 0, , 3560, 3547, 3570, 3568, 3619, 3539, 0, 1, 14806, -89.900, 0.000, -73.300, 0.000, 0.000, -2.900, 0.0, , , , , , , 95, , , 21, 21, 21, ,0.0036100
 40.0403246, -105.5691729, 23.600, 14:48:22.251, 15, 0.00, 0.62, 98, -2.900, 0.800, -72.400, 370, --, 98, 18, 21421, -22966, 5176, 5282, 22, 14, 1570654102.251, 16, 98, 1024, 1024, 1024, 1024, 0, , 3560, 3547, 3570, 3568, 3619, 3539, 0, 1, 14905, -89.900, 0.000, -73.300, 0.000, 0.000, -2.900, 0.0, , , , , , , 95, , , 21, 21, 21, ,0.0036100
 40.0403246, -105.5691730, 23.900, 14:48:22.352, 15, 0.00, 0.63, 98, -2.900, 1.100, -72.300, 370, --, 97, 18, 21421, -22966, 5176, 5282, 22, 14, 1570654102.352, 17, 97, 1024, 1024, 1024, 1024, 0, , 3560, 3547, 3570, 3568, 3619, 3539, 0, 1, 15006, -89.900, 0.000, -73.300, 0.000, 0.000, -2.900, 0.0, , , , , , , 95, , , 21, 21, 21, ,0.0036100
 40.0403247, -105.5691731, 24.200, 14:48:22.452, 15, 0.00, 0.63, 98, -2.500, 0.900, -72.100, 370, --, 97, 18, 21421, -22966, 5176, 5282, 22, 14, 1570654102.452, 16, 97, 1024, 1024, 1024, 1024, 0, , 3560, 3547, 3570, 3568, 3619, 3539, 0, 1, 15106, -89.900, 0.000, -73.300, 0.000, 0.000, -2.900, 0.0, , , , , , , 95, , , 21, 21, 21, ,0.0036100
 40.0403247, -105.5691731, 24.500, 14:48:22.552, 15, 0.00, 0.63, 98, -2.500, 0.600, -71.900, 370, --, 97, 18, 21421, -22966, 5176, 5282, 22, 14, 1570654102.552, 8, 97, 1024, 1024, 1024, 1024, 0, , 3560, 3547, 3570, 3568, 3619, 3539, 0, 1, 15206, -89.900, 0.000, -73.300, 0.000, 0.000, -2.900, 0.0, , , , , , , 95, , , 21, 21, 21, ,0.0036100
 40.0403247, -105.5691731, 24.500, 14:48:22.652, 15, 0.00, 0.63, 98, -2.500, 0.600, -71.900, 370, --, 97, 18, 21421, -22966, 5176, 5282, 22, 14, 1570654102.652, 108, 97, 1024, 1024, 1024, 1024, 0, , 3560, 3547, 3570, 3568, 3619, 3539, 0, 1, 15306, -89.900, 0.000, -73.300, 0.000, 0.000, -2.900, 0.0, , , , , , , 95, , , 21, 21, 21, ,0.0036100
 40.0403247, -105.5691732, 24.800, 14:48:22.752, 15, 0.00, 0.63, 98, -2.700, 0.400, -71.900, 370, --, 97, 18, 21421, -22966, 5176, 5282, 22, 14, 1570654102.752, 91, 97, 1024, 1024, 1024, 1024, 0, , 3560, 3547, 3570, 3568, 3619, 3539, 0, 1, 15406, -90.000, 0.000, -73.300, 0.000, 0.000, -3.000, 0.0, , , , , , , 95, , , 21, 21, 21, ,0.0036100
 40.0403248, -105.5691732, 25.100, 14:48:22.852, 15, 0.00, 0.63, 98, -2.900, 0.000, -72.000, 370, --, 97, 18, 21421, -22966, 5176, 5282, 22, 14, 1570654102.852, 97, 97, 1024, 1024, 1024, 1024, 0, , 3560, 3547, 3570, 3568, 3619, 3539, 0, 1, 15506, -90.000, 0.000, -73.300, 0.000, 0.000, -3.000, 0.0, , , , , , , 95, , , 21, 21, 21, ,0.0036100
 40.0403248, -105.5691732, 25.100, 14:48:22.952, 15, 0.00, 0.63, 98, -2.900, 0.000, -72.000, 370, --, 97, 18, 21405, -22416, 5176, 5282, 22, 14, 1570654102.952, 197, 97, 1024, 1024, 1024, 1024, 0, , 3560, 3547, 3570, 3568, 3619, 3539, 0, 1, 15606, -90.000, 0.000, -73.300, 0.000, 0.000, -3.000, 0.0, , , , , , , 95, , , 21, 21, 21, ,0.0036100
 40.0403248, -105.5691732, 25.100, 14:48:23.052, 15, 0.00, 0.63, 98, -2.900, 0.000, -72.000, 370, --, 97, 18, 21405, -22416, 5176, 5282, 22, 14, 1570654103.052, 297, 97, 1024, 1024, 1024, 1024, 0, , 3560, 3547, 3570, 3568, 3619, 3539, 0, 1, 15706, -89.900, 0.000, -73.300, 0.000, 0.000, -3.000, 0.0, , , , , , , 95, , , 21, 21, 21, ,0.0036100
 40.0403248, -105.5691733, 26.000, 14:48:23.152, 15, 0.00, 0.64, 98, -3.400, 0.000, -73.200, 370, --, 97, 18, 21405, -22416, 5176, 5282, 22, 14, 1570654103.152, 84, 97, 1024, 1024, 1024, 1024, 0, , 3555, 3548, 3563, 3595, 3609, 3553, 0, 1, 15806, -89.900, 0.000, -73.300, 0.000, 0.000, -2.900, 0.0, , , , , , , 95, , , 21, 21, 21, ,0.0036100
 40.0403247, -105.5691734, 26.300, 14:48:23.251, 15, 0.10, 0.63, 98, -2.700, 0.100, -72.900, 370, --, 97, 18, 21405, -22416, 5176, 5282, 22, 14, 1570654103.251, 76, 97, 1024, 1024, 1024, 1024, 0, , 3555, 3548, 3563, 3595, 3609, 3553, 0, 1, 15905, -89.900, 0.000, -73.300, -0.100, 0.000, -3.000, 0.0, , , , , , , 95, , , 21, 21, 21, ,0.0036100
 40.0403246, -105.5691735, 26.600, 14:48:23.352, 15, 0.10, 0.61, 98, -1.100, 0.800, -72.500, 370, --, 97, 18, 21405, -22416, 5176, 5282, 22, 14, 1570654103.352, 77, 97, 1024, 1024, 1024, 1024, 0, , 3555, 3548, 3563, 3595, 3609, 3553, 0, 1, 16006, -89.900, 0.000, -73.300, -0.100, 0.000, -2.900, 0.0, , , , , , , 95, , , 21, 21, 21, ,0.0036100
 40.0403245, -105.5691735, 26.900, 14:48:23.452, 15, 0.10, 0.60, 98, -0.200, 1.000, -72.200, 370, --, 96, 18, 21405, -22416, 5176, 5282, 22, 14, 1570654103.452, 37, 96, 1024, 1024, 1024, 1024, 0, , 3555, 3548, 3563, 3595, 3609, 3553, 0, 1, 16106, -89.900, 0.000, -73.300, -0.100, 0.000, -2.900, 0.0, , , , , , , 95, , , 21, 21, 21, ,0.0036100
 40.0403244, -105.5691735, 27.500, 14:48:23.552, 15, 0.00, 0.59, 98, -0.600, 0.200, -71.800, 370, --, 96, 18, 21405, -22416, 5176, 5282, 22, 14, 1570654103.552, 56, 96, 1024, 1024, 1024, 1024, 0, , 3555, 3548, 3563, 3595, 3609, 3553, 0, 1, 16206, -89.900, 0.000, -73.300, 0.000, 0.000, -3.000, 0.0, , , , , , , 95, , , 21, 21, 21, ,0.0036100
 40.0403244, -105.5691735, 27.500, 14:48:23.652, 15, 0.00, 0.59, 98, -0.600, 0.200, -71.800, 370, --, 96, 18, 21405, -22416, 5176, 5282, 22, 14, 1570654103.652, 156, 96, 1024, 1024, 1024, 1024, 0, , 3555, 3548, 3563, 3595, 3609, 3553, 0, 1, 16306, -90.000, 0.000, -73.300, 0.000, 0.000, -3.000, 0.0, , , , , , , 95, , , 21, 21, 21, ,0.0036100
 40.0403245, -105.5691734, 28.100, 14:48:23.752, 15, 0.00, 0.60, 98, -1.400, -0.900, -71.900, 370, --, 96, 18, 21405, -22416, 5176, 5282, 22, 14, 1570654103.752, 54, 96, 1024, 1024, 1024, 1024, 0, , 3555, 3548, 3563, 3595, 3609, 3553, 0, 1, 16407, -90.000, 0.000, -73.300, 0.000, 0.000, -3.200, 0.0, , , , , , , 95, , , 21, 21, 21, ,0.0036100
 40.0403246, -105.5691734, 28.500, 14:48:23.852, 15, 0.00, 0.61, 98, -2.000, -0.500, -72.100, 370, --, 96, 19, 21326, -23141, 5123, 5282, 22, 14, 1570654103.852, 45, 96, 1024, 1024, 1024, 1024, 0, , 3536, 3530, 3555, 3577, 3607, 3538, 0, 1, 16507, -89.900, 0.000, -73.300, 0.000, 0.000, -3.200, 0.0, , , , , , , 95, , , 21, 21, 21, ,0.0036100
 40.0403247, -105.5691734, 28.800, 14:48:23.952, 15, 0.00, 0.62, 98, -2.600, -0.100, -72.300, 370, --, 96, 19, 21326, -23141, 5123, 5282, 22, 14, 1570654103.952, 36, 96, 1024, 1024, 1024, 1024, 0, , 3536, 3530, 3555, 3577, 3607, 3538, 0, 1, 16606, -89.900, 0.000, -73.300, 0.000, 0.000, -3.300, 0.0, , , , , , , 95, , , 21, 21, 21, ,0.0036100
 40.0403248, -105.5691734, 29.200, 14:48:24.052, 15, 0.00, 0.63, 98, -3.500, 0.200, -72.500, 370, --, 96, 19, 21326, -23141, 5123, 5282, 22, 14, 1570654104.052, 16, 96, 1024, 1024, 1024, 1024, 0, , 3536, 3530, 3555, 3577, 3607, 3538, 0, 1, 16706, -89.900, 0.000, -73.300, 0.000, 0.000, -3.200, 0.0, , , , , , , 95, , , 21, 21, 21, ,0.0036100
 40.0403248, -105.5691734, 29.200, 14:48:24.152, 15, 0.00, 0.63, 98, -3.500, 0.200, -72.500, 370, --, 96, 19, 21326, -23141, 5123, 5282, 22, 14, 1570654104.152, 116, 96, 1024, 1024, 1024, 1024, 0, , 3536, 3530, 3555, 3577, 3607, 3538, 0, 1, 16806, -89.900, 0.000, -73.300, 0.000, 0.000, -3.200, 0.0, , , , , , , 95, , , 21, 21, 21, No Image Transmission Signal / Aircraft GPS Error,0.0036100
 40.0403250, -105.5691735, 29.800, 14:48:24.251, 15, 0.00, 0.65, 98, -4.100, 1.000, -73.100, 370, --, 96, 19, 21326, -23141, 5123, 5282, 22, 14, 1570654104.251, 18, 96, 1024, 1024, 1024, 1024, 0, , 3536, 3530, 3555, 3577, 3607, 3538, 0, 1, 16906, -89.900, 0.000, -73.300, 0.000, 0.000, -3.000, 0.0, , , , , , , 95, , , 21, 21, 21, ,0.0036100
 40.0403250, -105.5691735, 29.800, 14:48:24.352, 15, 0.00, 0.65, 98, -4.100, 1.000, -73.100, 370, --, 96, 19, 21326, -23141, 5123, 5282, 22, 14, 1570654104.352, 118, 96, 1024, 1024, 1024, 1024, 0, , 3536, 3530, 3555, 3577, 3607, 3538, 0, 1, 17006, -89.900, 0.000, -73.300, 0.000, 0.000, -3.000, 0.0, , , , , , , 95, , , 21, 21, 21, ,0.0036100
 40.0403251, -105.5691734, 30.500, 14:48:24.451, 15, 0.00, 0.67, 98, -4.300, 1.300, -73.500, 370, --, 90, 19, 21326, -23141, 5123, 5282, 22, 14, 1570654104.452, 5, 90, 1024, 1024, 1024, 1024, 0, , 3536, 3530, 3555, 3577, 3607, 3538, 0, 1, 17106, -89.900, 0.000, -73.300, 0.000, 0.000, -3.000, 0.0, , , , , , , 95, , , 21, 21, 21, ,0.0036100
 40.0403252, -105.5691734, 30.800, 14:48:24.552, 15, 0.00, 0.68, 98, -4.300, 1.200, -73.400, 370, --, 90, 19, 21326, -23141, 5123, 5282, 22, 14, 1570654104.552, 13, 90, 1024, 1024, 1024, 1024, 0, , 3536, 3530, 3555, 3577, 3607, 3538, 0, 1, 17206, -89.900, 0.000, -73.300, 0.000, 0.000, -2.900, 0.0, , , , , , , 95, , , 21, 21, 21, ,0.0036100
 40.0403253, -105.5691733, 31.100, 14:48:24.652, 15, 0.00, 0.69, 98, -4.100, 1.000, -73.300, 370, --, 90, 19, 21326, -23141, 5123, 5282, 22, 14, 1570654104.652, 8, 90, 1024, 1024, 1024, 1024, 0, , 3536, 3530, 3555, 3577, 3607, 3538, 0, 1, 17306, -89.900, 0.000, -73.300, 0.000, 0.000, -2.900, 0.0, , , , , , , 95, , , 21, 21, 21, ,0.0036100
 40.0403253, -105.5691732, 31.400, 14:48:24.752, 15, 0.00, 0.69, 98, -4.200, 0.700, -73.100, 370, --, 90, 19, 21326, -23141, 5123, 5282, 22, 14, 1570654104.752, 15, 90, 1024, 1024, 1024, 1024, 0, , 3536, 3530, 3555, 3577, 3607, 3538, 0, 1, 17406, -89.900, 0.000, -73.300, 0.000, 0.000, -2.900, 0.0, , , , , , , 95, , , 21, 21, 21, ,0.0036100
 40.0403253, -105.5691732, 31.400, 14:48:24.852, 15, 0.00, 0.69, 98, -4.200, 0.700, -73.100, 370, --, 90, 19, 21326, -23141, 5123, 5282, 22, 14, 1570654104.852, 115, 90, 1024, 1024, 1024, 1024, 0, , 3536, 3530, 3555, 3577, 3607, 3538, 0, 1, 17506, -89.900, 0.000, -73.300, 0.000, 0.000, -2.900, 0.0, , , , , , , 95, , , 21, 21, 21, ,0.0036100
 40.0403254, -105.5691730, 32.100, 14:48:24.951, 15, 0.10, 0.71, 97, -5.300, -0.100, -72.800, 370, --, 88, 19, 21391, -22086, 5123, 5282, 22, 14, 1570654104.952, 6, 88, 1024, 1024, 1024, 1024, 0, , 3549, 3541, 3590, 3604, 3617, 3561, 0, 1, 17606, -90.000, 0.000, -73.300, 0.000, 0.100, -3.000, 0.0, , , , , , , 95, , , 21, 21, 21, ,0.0036100
 40.0403254, -105.5691730, 32.100, 14:48:25.052, 15, 0.10, 0.71, 97, -5.300, -0.100, -72.800, 370, --, 88, 19, 21391, -22086, 5123, 5282, 22, 14, 1570654105.052, 107, 88, 1024, 1024, 1024, 1024, 0, , 3549, 3541, 3590, 3604, 3617, 3561, 0, 1, 17706, -90.000, 0.000, -73.300, 0.000, 0.100, -3.000, 0.0, , , , , , , 95, , , 21, 21, 21, ,0.0036100
 40.0403254, -105.5691730, 32.100, 14:48:25.152, 15, 0.10, 0.71, 97, -5.300, -0.100, -72.800, 370, --, 88, 19, 21391, -22086, 5123, 5282, 22, 14, 1570654105.152, 207, 88, 1024, 1024, 1024, 1024, 0, , 3549, 3541, 3590, 3604, 3617, 3561, 0, 1, 17806, -90.000, 0.000, -73.300, 0.000, 0.100, -3.000, 0.0, , , , , , , 95, , , 21, 21, 21, ,0.0036100
 40.0403256, -105.5691727, 32.800, 14:48:25.251, 15, 0.10, 0.74, 97, -6.200, -0.500, -72.400, 370, --, 88, 19, 21391, -22086, 5123, 5282, 22, 14, 1570654105.251, 88, 88, 1024, 1024, 1024, 1024, 0, , 3549, 3541, 3590, 3604, 3617, 3561, 0, 1, 17905, -90.000, 0.000, -73.300, 0.000, 0.100, -2.900, 0.0, , , , , , , 95, , , 21, 21, 21, ,0.0036100
 40.0403257, -105.5691725, 33.100, 14:48:25.352, 15, 0.10, 0.75, 97, -6.600, -0.700, -72.200, 370, --, 88, 19, 21391, -22086, 5123, 5282, 22, 14, 1570654105.352, 97, 88, 1024, 1024, 1024, 1024, 0, , 3549, 3541, 3590, 3604, 3617, 3561, 0, 1, 18006, -90.000, 0.000, -73.300, 0.000, 0.100, -2.800, 0.0, , , , , , , 95, , , 21, 21, 21, ,0.0036100
 40.0403258, -105.5691724, 33.400, 14:48:25.452, 15, 0.10, 0.76, 97, -6.600, -0.600, -72.000, 370, --, 93, 19, 21391, -22086, 5123, 5282, 22, 14, 1570654105.452, 97, 93, 1024, 1024, 1024, 1024, 0, , 3549, 3541, 3590, 3604, 3617, 3561, 0, 1, 18106, -89.900, 0.000, -73.300, 0.000, 0.100, -2.700, 0.0, , , , , , , 95, , , 21, 21, 21, ,0.0036100
 40.0403259, -105.5691723, 33.600, 14:48:25.552, 15, 0.10, 0.77, 97, -6.300, -0.400, -71.800, 370, --, 93, 19, 21391, -22086, 5123, 5282, 22, 14, 1570654105.552, 81, 93, 1024, 1024, 1024, 1024, 0, , 3549, 3541, 3590, 3604, 3617, 3561, 0, 1, 18206, -90.000, 0.000, -73.300, 0.000, 0.100, -2.500, 0.0, , , , , , , 95, , , 21, 21, 21, ,0.0036100
 40.0403259, -105.5691721, 33.900, 14:48:25.652, 15, 0.10, 0.79, 97, -6.300, -0.500, -71.600, 370, --, 93, 19, 21391, -22086, 5123, 5282, 22, 14, 1570654105.652, 73, 93, 1024, 1024, 1024, 1024, 0, , 3549, 3541, 3590, 3604, 3617, 3561, 0, 1, 18306, -90.000, 0.000, -73.300, 0.000, 0.100, -2.600, 0.0, , , , , , , 95, , , 21, 21, 21, ,0.0036100
 40.0403260, -105.5691720, 34.200, 14:48:25.752, 15, 0.10, 0.80, 97, -6.400, -0.800, -71.500, 370, --, 93, 19, 21391, -22086, 5123, 5282, 22, 14, 1570654105.752, 74, 93, 1024, 1024, 1024, 1024, 0, , 3549, 3541, 3590, 3604, 3617, 3561, 0, 1, 18406, -90.000, 0.000, -73.300, 0.000, 0.100, -2.600, 0.0, , , , , , , 95, , , 21, 21, 21, ,0.0036100
 40.0403261, -105.5691718, 34.400, 14:48:25.852, 15, 0.10, 0.81, 97, -6.700, -1.100, -71.500, 370, --, 93, 19, 21659, -19398, 5123, 5282, 22, 14, 1570654105.852, 43, 93, 1024, 1024, 1024, 1024, 0, , 3549, 3541, 3590, 3604, 3617, 3561, 0, 1, 18506, -90.000, 0.000, -73.300, 0.000, 0.100, -2.600, 0.0, , , , , , , 95, , , 21, 21, 21, ,0.0036100
 40.0403263, -105.5691716, 34.900, 14:48:25.952, 15, 0.00, 0.84, 97, -7.000, -1.100, -71.800, 370, --, 98, 19, 21659, -19398, 5123, 5282, 22, 14, 1570654105.952, 48, 98, 1024, 1024, 1024, 1024, 0, , 3596, 3598, 3617, 3633, 3644, 3590, 0, 1, 18606, -90.000, 0.000, -73.300, 0.000, 0.000, -2.500, 0.0, , , , , , , 95, , , 21, 21, 21, Aircraft GPS Error,0.0036100
 40.0403263, -105.5691715, 35.200, 14:48:26.052, 15, 0.00, 0.85, 97, -7.300, -0.800, -72.100, 370, --, 98, 19, 21659, -19398, 5123, 5282, 22, 14, 1570654106.052, 48, 98, 1024, 1024, 1024, 1024, 0, , 3596, 3598, 3617, 3633, 3644, 3590, 0, 1, 18706, -89.900, 0.000, -73.300, 0.000, 0.000, -2.500, 0.0, , , , , , , 95, , , 21, 21, 21, ,0.0036100
 40.0403264, -105.5691715, 35.500, 14:48:26.153, 15, 0.00, 0.86, 97, -7.000, -0.100, -72.400, 370, --, 98, 19, 21659, -19398, 5123, 5282, 22, 14, 1570654106.154, 47, 98, 1024, 1024, 1024, 1024, 0, , 3596, 3598, 3617, 3633, 3644, 3590, 0, 1, 18808, -89.900, 0.000, -73.300, 0.000, 0.000, -2.600, 0.0, , , , , , , 95, , , 21, 21, 21, ,0.0036100
 40.0403265, -105.5691714, 35.700, 14:48:26.251, 15, 0.00, 0.86, 97, -6.500, 0.300, -72.700, 370, --, 98, 19, 21659, -19398, 5123, 5282, 22, 14, 1570654106.251, 28, 98, 1024, 1024, 1024, 1024, 0, , 3596, 3598, 3617, 3633, 3644, 3590, 0, 1, 18906, -89.900, 0.000, -73.300, 0.000, 0.000, -2.700, 0.0, , , , , , , 95, , , 21, 21, 21, ,0.0036100
 40.0403265, -105.5691714, 36.000, 14:48:26.353, 15, 0.00, 0.87, 97, -7.000, 0.200, -72.900, 370, --, 98, 19, 21659, -19398, 5123, 5282, 22, 14, 1570654106.353, 30, 98, 1024, 1024, 1024, 1024, 0, , 3596, 3598, 3617, 3633, 3644, 3590, 0, 1, 19007, -89.900, 0.000, -73.300, 0.000, 0.000, -2.700, 0.0, , , , , , , 95, , , 21, 21, 21, ,0.0036100
 40.0403266, -105.5691713, 36.300, 14:48:26.453, 15, 0.00, 0.88, 97, -7.400, 0.300, -73.100, 370, --, 99, 19, 21659, -19398, 5123, 5282, 22, 14, 1570654106.454, 28, 99, 1024, 1024, 1024, 1024, 0, , 3596, 3598, 3617, 3633, 3644, 3590, 0, 1, 19108, -89.900, 0.000, -73.300, 0.000, 0.000, -2.600, 0.0, , , , , , , 95, , , 21, 21, 21, ,0.0036100
 40.0403266, -105.5691713, 36.500, 14:48:26.553, 15, 0.00, 0.88, 97, -7.700, 0.000, -73.300, 370, --, 99, 19, 21659, -19398, 5123, 5282, 22, 14, 1570654106.553, 28, 99, 1024, 1024, 1024, 1024, 0, , 3596, 3598, 3617, 3633, 3644, 3590, 0, 1, 19207, -89.900, 0.000, -73.300, 0.000, 0.000, -2.600, 0.0, , , , , , , 95, , , 21, 21, 21, ,0.0036100
 40.0403265, -105.5691712, 36.800, 14:48:26.654, 15, 0.10, 0.87, 97, -7.200, -0.600, -73.200, 370, --, 99, 19, 21659, -19398, 5123, 5282, 22, 14, 1570654106.654, 2, 99, 1024, 1024, 1024, 1024, 0, , 3596, 3598, 3617, 3633, 3644, 3590, 0, 1, 19308, -90.000, 0.000, -73.300, -0.100, 0.000, -2.600, 0.0, , , , , , , 95, , , 21, 21, 21, ,0.0036100
 40.0403264, -105.5691711, 37.000, 14:48:26.757, 15, 0.10, 0.87, 97, -5.400, -1.000, -72.800, 370, --, 99, 19, 21659, -19398, 5123, 5282, 22, 14, 1570654106.757, 1, 99, 1024, 1024, 1024, 1024, 0, , 3596, 3598, 3617, 3633, 3644, 3590, 0, 1, 19411, -90.000, 0.000, -73.300, -0.100, 0.000, -2.600, 0.1, , , , , , , 95, , , 21, 21, 21, ,0.0036100
 40.0403263, -105.5691710, 37.200, 14:48:26.854, 15, 0.14, 0.86, 97, -4.500, -1.400, -72.200, 370, --, 99, 19, 21537, -20282, 5123, 5282, 22, 14, 1570654106.854, 2, 99, 1024, 1024, 1024, 1024, 0, , 3596, 3598, 3617, 3633, 3644, 3590, 0, 1, 19508, -90.000, 0.000, -73.300, -0.100, 0.100, -2.600, 0.1, , , , , , , 95, , , 21, 21, 21, ,0.0036100
 40.0403263, -105.5691710, 37.200, 14:48:26.953, 15, 0.14, 0.86, 97, -4.500, -1.400, -72.200, 370, --, 99, 19, 21537, -20282, 5123, 5282, 22, 14, 1570654106.953, 101, 99, 1024, 1024, 1024, 1024, 0, , 3596, 3598, 3617, 3633, 3644, 3590, 0, 1, 19607, -90.000, 0.000, -73.300, -0.100, 0.100, -2.600, 0.1, , , , , , , 95, , , 21, 21, 21, ,0.0036100
 40.0403262, -105.5691709, 37.500, 14:48:27.053, 15, 0.10, 0.85, 97, -3.800, -1.400, -71.500, 370, --, 98, 19, 21537, -20282, 5123, 5282, 22, 14, 1570654107.054, 98, 98, 1024, 1024, 1024, 1024, 0, , 3596, 3598, 3617, 3633, 3644, 3590, 0, 1, 19708, -90.000, 0.000, -73.300, 0.000, 0.100, -2.600, 0.1, , , , , , , 95, , , 21, 21, 21, ,0.0036100
 40.0403261, -105.5691708, 37.700, 14:48:27.153, 15, 0.10, 0.85, 97, -4.300, -1.900, -71.100, 370, --, 98, 19, 21537, -20282, 5123, 5282, 22, 14, 1570654107.154, 96, 98, 1024, 1024, 1024, 1024, 0, , 3596, 3598, 3617, 3633, 3644, 3590, 0, 1, 19808, -89.900, 0.000, -73.300, 0.000, 0.100, -2.700, 0.1, , , , , , , 95, , , 21, 21, 21, ,0.0036100
 40.0403261, -105.5691706, 38.000, 14:48:27.251, 15, 0.10, 0.85, 97, -4.100, -1.900, -70.700, 370, --, 98, 19, 21537, -20282, 5123, 5282, 22, 14, 1570654107.251, 94, 98, 1024, 1024, 1024, 1024, 0, , 3596, 3598, 3617, 3633, 3644, 3590, 0, 1, 19905, -90.000, 0.000, -73.300, 0.000, 0.100, -2.800, 0.1, , , , , , , 95, , , 21, 21, 21, ,0.0036100
 40.0403260, -105.5691705, 38.300, 14:48:27.353, 15, 0.10, 0.85, 97, -4.600, -1.900, -70.600, 370, --, 98, 19, 21537, -20282, 5123, 5282, 22, 14, 1570654107.353, 97, 98, 1024, 1024, 1024, 1024, 0, , 3596, 3598, 3617, 3633, 3644, 3590, 0, 1, 20008, -89.900, 0.000, -73.300, 0.000, 0.100, -2.900, 0.1, , , , , , , 95, , , 21, 21, 21, ,0.0036100
 40.0403260, -105.5691704, 38.500, 14:48:27.452, 15, 0.10, 0.85, 97, -5.300, -2.200, -70.700, 370, --, 99, 19, 21537, -20282, 5123, 5282, 22, 14, 1570654107.452, 73, 99, 1024, 1024, 1024, 1024, 0, , 3548, 3547, 3566, 3579, 3624, 3548, 0, 1, 20106, -89.900, 0.000, -73.300, 0.000, 0.100, -2.900, 0.1, , , , , , , 95, , , 21, 21, 21, ,0.0036100
 40.0403260, -105.5691703, 38.800, 14:48:27.552, 15, 0.10, 0.85, 97, -5.600, -2.800, -70.800, 370, --, 99, 19, 21537, -20282, 5123, 5282, 22, 14, 1570654107.552, 73, 99, 1024, 1024, 1024, 1024, 0, , 3548, 3547, 3566, 3579, 3624, 3548, 0, 1, 20206, -89.900, 0.000, -73.300, 0.000, 0.100, -3.000, 0.1, , , , , , , 95, , , 21, 21, 21, ,0.0036100
 40.0403260, -105.5691702, 39.100, 14:48:27.652, 15, 0.10, 0.86, 97, -6.400, -2.700, -71.200, 370, --, 99, 19, 21537, -20282, 5123, 5282, 22, 14, 1570654107.652, 83, 99, 1024, 1024, 1024, 1024, 0, , 3548, 3547, 3566, 3579, 3624, 3548, 0, 1, 20306, -89.900, 0.000, -73.300, 0.000, 0.100, -3.100, 0.1, , , , , , , 95, , , 21, 21, 21, ,0.0036100
 40.0403260, -105.5691702, 39.800, 14:48:27.752, 15, 0.00, 0.86, 97, -8.400, -3.400, -71.900, 370, --, 99, 19, 21537, -20282, 5123, 5282, 22, 14, 1570654107.752, 72, 99, 1024, 1024, 1024, 1024, 0, , 3548, 3547, 3566, 3579, 3624, 3548, 0, 1, 20406, -90.000, 0.000, -73.300, 0.000, 0.000, -3.200, 0.0, , , , , , , 95, , , 21, 21, 21, ,0.0036100
 40.0403260, -105.5691702, 39.800, 14:48:27.852, 15, 0.00, 0.86, 97, -8.400, -3.400, -71.900, 370, --, 99, 19, 21537, -20282, 5123, 5282, 22, 14, 1570654107.852, 172, 99, 1024, 1024, 1024, 1024, 0, , 3548, 3547, 3566, 3579, 3624, 3548, 0, 1, 20506, -90.000, 0.000, -73.300, 0.000, 0.000, -3.200, 0.0, , , , , , , 95, , , 21, 21, 21, ,0.0036100
 40.0403259, -105.5691702, 40.100, 14:48:27.952, 15, 0.10, 0.85, 97, -7.000, -3.800, -72.200, 370, --, 99, 19, 21537, -20282, 5123, 5282, 22, 14, 1570654107.952, 33, 99, 1024, 1024, 1024, 1024, 0, , 3548, 3547, 3566, 3579, 3624, 3548, 0, 1, 20606, -89.900, 0.000, -73.300, -0.100, 0.000, -3.200, 0.1, , , , , , , 95, , , 21, 21, 21, ,0.0036100
 40.0403256, -105.5691706, 40.700, 14:48:28.052, 15, 0.10, 0.81, 97, -4.500, -2.200, -72.800, 370, --, 99, 19, 21537, -20282, 5123, 5282, 22, 14, 1570654108.052, 51, 99, 1024, 1024, 1024, 1024, 0, , 3548, 3547, 3566, 3579, 3624, 3548, 0, 1, 20706, -89.900, 0.000, -73.300, 0.000, -0.100, -3.300, 0.1, , , , , , , 95, , , 21, 21, 21, ,0.0036100
 40.0403255, -105.5691708, 41.100, 14:48:28.151, 15, 0.10, 0.79, 97, -4.400, -0.900, -73.100, 370, --, 99, 19, 21537, -20282, 5123, 5282, 22, 14, 1570654108.151, 48, 99, 1024, 1024, 1024, 1024, 0, , 3548, 3547, 3566, 3579, 3624, 3548, 0, 1, 20806, -89.900, 0.000, -73.300, 0.000, -0.100, -3.400, 0.1, , , , , , , 95, , , 21, 21, 21, ,0.0036100
 40.0403255, -105.5691709, 41.500, 14:48:28.251, 15, 0.10, 0.79, 97, -4.700, 0.000, -73.400, 370, --, 99, 19, 21537, -20282, 5123, 5282, 22, 14, 1570654108.251, 36, 99, 1024, 1024, 1024, 1024, 0, , 3548, 3547, 3566, 3579, 3624, 3548, 0, 1, 20905, -89.900, 0.000, -73.300, 0.000, -0.100, -3.400, 0.1, , , , , , , 95, , , 21, 21, 21, ,0.0036100
 40.0403256, -105.5691710, 41.800, 14:48:28.352, 15, 0.00, 0.79, 97, -5.400, 0.900, -73.600, 370, --, 99, 19, 20995, -25382, 5123, 5282, 22, 14, 1570654108.352, 46, 99, 1024, 1024, 1024, 1024, 0, , 3476, 3465, 3486, 3491, 3531, 3463, 0, 1, 21006, -89.900, 0.000, -73.300, 0.000, 0.000, -3.300, 0.0, , , , , , , 95, , , 21, 21, 21, ,0.0036100
